Dc_Dist,Psa,Dispatch_Date_Time,Dispatch_Date,Dispatch_Time,Hour,Dc_Key,Location_Block,UCR_General,Text_General_Code,Police_Districts,Month,Lon,Lat
25,4,9/15/2014 4:31,9/15/2014,4:31:00,4,2.01E+11,2700 BLOCK N 08TH ST,500,Burglary,18,2014-09,-75.145086,39.993013
9,2,10/7/2014 10:12,10/7/2014,10:12:00,10,2.01E+11,400 BLOCK N 21ST ST,1100,Fraud,8,2014-10,-75.173317,39.961695
35,2,2/24/2014 16:29,2/24/2014,16:29:00,16,2.01E+11,200 BLOCK E ALBANUS ST,500,Burglary,20,2014-02,-75.120203,40.027203
7,1,10/22/2014 16:30,10/22/2014,16:30:00,16,2.01E+11,8200 BLOCK E ROOSEVELT BLVD,600,Thefts,6,2014-10,-75.044526,40.05944
3,3,8/12/2014 21:30,8/12/2014,21:30:00,21,2.01E+11,2500 BLOCK S 07TH ST,2100,Driving Under The Influence,3,2014-08,-75.159326,39.917882
26,3,6/11/2014 13:41,6/11/2014,13:41:00,13,2.01E+11,1000 BLOCK HYDE ST,500,Burglary,19,2014-06,-75.13023,39.96871
17,3,4/9/2014 19:03,4/9/2014,19:03:00,19,2.01E+11,1700 BLOCK S 24TH ST,1400,Vandalism/Criminal Mischief,13,2014-04,-75.18518,39.930672
1,2,3/17/2014 20:07,3/17/2014,20:07:00,20,2.01E+11,4500 BLOCK S BROAD ST,2100,Driving Under The Influence,1,2014-03,-75.175362,39.897304
9,3,5/15/2014 10:04,5/15/2014,10:04:00,10,2.01E+11,600 BLOCK N 15TH ST,600,Thefts,8,2014-05,-75.162329,39.965869
39,3,5/24/2014 10:41,5/24/2014,10:41:00,10,2.01E+11,2900 BLOCK N 25TH ST,500,Burglary,21,2014-05,-75.171629,39.999775
3,3,11/12/2014 2:04,11/12/2014,2:04:00,2,2.01E+11,1300 BLOCK ELLSWORTH ST,300,Robbery,3,2014-11,-75.164935,39.93635
2,3,10/12/2014 8:33,10/12/2014,8:33:00,8,2.01E+11,1900 BLOCK COTTMAN AVE,500,Burglary,2,2014-10,-75.067643,40.052159
12,1,2/15/2014 10:53,2/15/2014,10:53:00,10,2.01E+11,6900 BLOCK ELMWOOD AVE,1500,Weapon Violations,9,2014-02,-75.236048,39.91812
15,2,6/27/2014 13:07,6/27/2014,13:07:00,13,2.01E+11,5400 BLOCK TORRESDALE AVE,600,Thefts,11,2014-06,-75.065525,40.014353
14,3,5/6/2014 22:11,5/6/2014,22:11:00,22,2.01E+11,6500 BLOCK GERMANTOWN AVE,1500,Weapon Violations,10,2014-05,-75.183446,40.048256
12,4,12/8/2014 19:52,12/8/2014,19:52:00,19,2.01E+11,5400 BLOCK REGENT ST,500,Burglary,9,2014-12,-75.222442,39.938814
26,3,6/14/2014 0:23,6/14/2014,0:23:00,0,2.01E+11,2400 BLOCK MEMPHIS ST,400,Aggravated Assault,19,2014-06,-75.12512,39.979415
35,2,3/18/2014 22:03,3/18/2014,22:03:00,22,2.01E+11,300 BLOCK W FISHER AVE,1500,Weapon Violations,20,2014-03,-75.128676,40.031473
19,2,4/29/2014 11:32,4/29/2014,11:32:00,11,2.01E+11,4900 BLOCK KERSHAW ST,400,Aggravated Assault,15,2014-04,-75.2209,39.974238
19,3,5/16/2014 17:41,5/16/2014,17:41:00,17,2.01E+11,4900 BLOCK MONUMENT RD,500,Burglary,15,2014-05,-75.220392,39.992454
15,2,11/15/2014 10:23,11/15/2014,10:23:00,10,2.01E+11,FRANKFORD AV / ROBBINS ST,600,Thefts,11,2014-11,-75.059984,40.027802
15,3,8/22/2014 14:15,8/22/2014,14:15:00,14,2.01E+11,7200 BLOCK BROUS AVE,300,Robbery,11,2014-08,-75.053848,40.04162
2,3,11/4/2014 14:22,11/4/2014,14:22:00,14,2.01E+11,1400 BLOCK WELLINGTON ST,1100,Fraud,2,2014-11,-75.068335,40.050618
24,2,4/25/2014 14:45,4/25/2014,14:45:00,14,2.01E+11,2900 BLOCK KIP ST,1800,Narcotic / Drug Law Violations,17,2014-04,-75.12706,39.993603
8,1,7/22/2014 18:43,7/22/2014,18:43:00,18,2.01E+11,4000 BLOCK EVARTS ST,2200,Liquor Law Violations,7,2014-07,-75.011541,40.049442
24,1,2/12/2014 18:24,2/12/2014,18:24:00,18,2.01E+11,1800 BLOCK E RUSSELL ST,1800,Narcotic / Drug Law Violations,17,2014-02,-75.108155,39.999301
22,1,4/11/2014 17:56,4/11/2014,17:56:00,17,2.01E+11,2000 BLOCK W DAUPHIN ST,2100,Driving Under The Influence,16,2014-04,-75.1655,39.989156
6,3,1/21/2014 1:03,1/21/2014,1:03:00,1,2.01E+11,200 BLOCK S CAMAC ST,300,Robbery,5,2014-01,-75.161388,39.948983
26,1,7/25/2014 8:26,7/25/2014,8:26:00,8,2.01E+11,2400 BLOCK N 09TH ST,500,Burglary,19,2014-07,-75.14713,39.9883
15,2,12/4/2014 12:40,12/4/2014,12:40:00,12,2.01E+11,6300 BLOCK JACKSON ST,1400,Vandalism/Criminal Mischief,11,2014-12,-75.054647,40.02314
24,2,5/3/2014 17:27,5/3/2014,17:27:00,17,2.01E+11,200 BLOCK E MAYFIELD ST,1800,Narcotic / Drug Law Violations,17,2014-05,-75.12721,39.995479
16,1,10/28/2014 9:49,10/28/2014,9:49:00,9,2.01E+11,3200 BLOCK RACE ST,600,Thefts,12,2014-10,-75.187989,39.958809
2,3,12/28/2014 16:19,12/28/2014,16:19:00,16,2.01E+11,1400 BLOCK ALDINE ST,600,Thefts,2,2014-12,-75.074897,40.057319
5,3,9/11/2014 15:21,9/11/2014,15:21:00,15,2.01E+11,900 BLOCK CATHEDRAL RD,1100,Fraud,4,2014-09,-75.228126,40.067718
35,3,4/14/2014 22:42,4/14/2014,22:42:00,22,2.01E+11,W 65TH AV / N 21ST ST,600,Thefts,20,2014-04,-75.155258,40.053111
18,1,10/13/2014 7:25,10/13/2014,7:25:00,7,2.01E+11,1000 BLOCK S 62ND ST,600,Thefts,14,2014-10,-75.247717,39.948373
12,3,12/21/2014 23:27,12/21/2014,23:27:00,23,2.01E+11,5500 BLOCK WOODLAND AVE,2100,Driving Under The Influence,9,2014-12,-75.22033,39.935362
25,4,7/1/2014 21:31,7/1/2014,21:31:00,21,2.01E+11,700 BLOCK W TIOGA ST,1800,Narcotic / Drug Law Violations,18,2014-07,-75.141194,40.004746
18,3,7/29/2014 22:56,7/29/2014,22:56:00,22,2.01E+11,4600 BLOCK PINE ST,300,Robbery,14,2014-07,-75.214428,39.952018
14,4,6/19/2014 14:09,6/19/2014,14:09:00,14,2.01E+11,7400 BLOCK STENTON AVE,600,Thefts,10,2014-06,-75.186125,40.071356
9,2,2/11/2014 20:09,2/11/2014,20:09:00,20,2.01E+11,1500 BLOCK MARKET ST,600,Thefts,8,2014-02,-75.165287,39.95255
26,2,4/24/2014 10:30,4/24/2014,10:30:00,10,2.01E+11,200 BLOCK W GIRARD AVE,500,Burglary,19,2014-04,-75.140218,39.969638
5,3,6/2/2014 15:05,6/2/2014,15:05:00,15,2.01E+11,300 BLOCK SHAWMONT AVE,1100,Fraud,4,2014-06,-75.24278,40.050221
25,4,10/9/2014 19:14,10/9/2014,19:14:00,19,2.01E+11,N 09TH ST / W ALLEGHENY AV,200,Rape,18,2014-10,-75.144125,40.002167
14,1,12/18/2014 11:25,12/18/2014,11:25:00,11,2.01E+11,6800 BLOCK CRITTENDEN ST,1100,Fraud,10,2014-12,-75.176263,40.063901
24,2,12/13/2014 10:39,12/13/2014,10:39:00,10,2.01E+11,3100 BLOCK ARBOR ST,1800,Narcotic / Drug Law Violations,17,2014-12,-75.123091,39.996163
35,2,2/27/2014 2:00,2/27/2014,2:00:00,2,2.01E+11,400 BLOCK W SOMERVILLE AVE,400,Aggravated Assault,20,2014-02,-75.129679,40.033162
9,3,1/17/2014 18:27,1/17/2014,18:27:00,18,2.01E+11,800 BLOCK N 28TH ST,1400,Vandalism/Criminal Mischief,8,2014-01,-75.182716,39.970704
24,1,3/4/2014 18:57,3/4/2014,18:57:00,18,2.01E+11,1900 BLOCK E TIOGA ST,1100,Fraud,17,2014-03,-75.10467,39.998333
25,2,7/1/2014 16:07,7/1/2014,16:07:00,16,2.01E+11,400 BLOCK E WYOMING AV,600,Thefts,18,2014-07,-75.11683,40.020577
8,3,1/28/2014 8:30,1/28/2014,8:30:00,8,2.01E+11,2900 BLOCK SOUTHAMPTON RD,500,Burglary,7,2014-01,-74.983324,40.103695
39,2,12/29/2014 5:03,12/29/2014,5:03:00,5,2.01E+11,1600 BLOCK STAUB ST,500,Burglary,21,2014-12,-75.152546,40.018139
6,3,12/1/2014 20:52,12/1/2014,20:52:00,20,2.01E+11,1300 BLOCK LOCUST ST,600,Thefts,5,2014-12,-75.163897,39.948178
15,3,9/26/2014 12:10,9/26/2014,12:10:00,12,2.01E+11,5000 BLOCK COTTMAN AV,600,Thefts,11,2014-09,-75.031327,40.02538
26,3,12/2/2014 13:03,12/2/2014,13:03:00,13,2.01E+11,100 BLOCK E LEHIGH AVE,1400,Vandalism/Criminal Mischief,19,2014-12,-75.129948,39.990733
14,2,11/17/2014 15:23,11/17/2014,15:23:00,15,2.01E+11,200 BLOCK E ASHMEAD ST,400,Aggravated Assault,10,2014-11,-75.164445,40.033703
6,2,7/23/2014 15:33,7/23/2014,15:33:00,15,2.01E+11,1000 BLOCK MARKET ST,600,Thefts,5,2014-07,-75.15676,39.951575
2,1,6/17/2014 12:27,6/17/2014,12:27:00,12,2.01E+11,6100 BLOCK OXFORD AVE,600,Thefts,2,2014-06,-75.088752,40.037981
6,2,9/3/2014 12:11,9/3/2014,12:11:00,12,2.01E+11,1200 BLOCK ARCH ST,600,Thefts,5,2014-09,-75.159477,39.953916
18,2,8/31/2014 14:44,8/31/2014,14:44:00,14,2.01E+11,5800 BLOCK CATHARINE ST,400,Aggravated Assault,14,2014-08,-75.239188,39.950421
12,2,4/7/2014 15:56,4/7/2014,15:56:00,15,2.01E+11,6500 BLOCK CHESTER AVE,600,Thefts,9,2014-04,-75.238968,39.928354
25,3,1/28/2014 23:40,1/28/2014,23:40:00,23,2.01E+11,2800 BLOCK MUTTER ST,1800,Narcotic / Drug Law Violations,18,2014-01,-75.133057,39.992848
8,3,6/17/2014 19:49,6/17/2014,19:49:00,19,2.01E+11,4200 BLOCK CHALFONT PL,1400,Vandalism/Criminal Mischief,7,2014-06,-74.974369,40.078521
8,3,7/16/2014 22:20,7/16/2014,22:20:00,22,2.01E+11,3500 BLOCK ACADEMY RD,1800,Narcotic / Drug Law Violations,7,2014-07,-74.970952,40.096318
6,1,11/5/2014 11:18,11/5/2014,11:18:00,11,2.01E+11,500 BLOCK SPRING GARDEN ST,600,Thefts,5,2014-11,-75.146578,39.961309
6,3,5/10/2014 20:20,5/10/2014,20:20:00,20,2.01E+11,1300 BLOCK MARKET ST,600,Thefts,5,2014-05,-75.161469,39.952062
25,4,5/26/2014 16:55,5/26/2014,16:55:00,16,2.01E+11,1000 BLOCK RISING SUN AV,600,Thefts,18,2014-05,-75.145935,40.005374
19,2,8/11/2014 20:09,8/11/2014,20:09:00,20,2.01E+11,6000 BLOCK VINE ST,400,Aggravated Assault,15,2014-08,-75.240952,39.96676
39,3,10/6/2014 18:12,10/6/2014,18:12:00,18,2.01E+11,2800 BLOCK N 23RD ST,1800,Narcotic / Drug Law Violations,21,2014-10,-75.168867,39.997462
14,3,12/3/2014 1:14,12/3/2014,1:14:00,1,2.01E+11,6200 BLOCK GREENE ST,1800,Narcotic / Drug Law Violations,10,2014-12,-75.183738,40.0386
9,1,2/2/2014 17:28,2/2/2014,17:28:00,17,2.01E+11,1500 BLOCK CHESTNUT ST 1,600,Thefts,8,2014-02,-75.166125,39.951099
14,2,7/14/2014 10:50,7/14/2014,10:50:00,10,2.01E+11,200 BLOCK E PHIL ELLENA ST,600,Thefts,10,2014-07,-75.182002,40.054832
15,1,11/26/2014 10:23,11/26/2014,10:23:00,10,2.01E+11,1600 BLOCK HARRISON ST,900,Arson,11,2014-11,-75.080025,40.01831
8,1,5/21/2014 11:34,5/21/2014,11:34:00,11,2.01E+11,8800 BLOCK MANCHESTER ST,1100,Fraud,7,2014-05,-75.031431,40.063297
2,1,10/29/2014 18:38,10/29/2014,18:38:00,18,2.01E+11,6100 BLOCK BELDEN ST,600,Thefts,2,2014-10,-75.08305,40.037112
26,3,10/18/2014 10:59,10/18/2014,10:59:00,10,2.01E+11,2600 BLOCK SALMON ST,1100,Fraud,19,2014-10,-75.115885,39.976313
5,3,12/19/2014 22:04,12/19/2014,22:04:00,22,2.01E+11,200 BLOCK SHAWMONT AV,600,Thefts,4,2014-12,-75.245296,40.049574
8,2,2/24/2014 21:00,2/24/2014,21:00:00,21,2.01E+11,10200 BLOCK N CANTERBURY RD,1100,Fraud,7,2014-02,-74.996448,40.079542
7,2,5/9/2014 8:36,5/9/2014,8:36:00,8,2.01E+11,9500 BLOCK NORTHEAST AVE,500,Burglary,6,2014-05,-75.042914,40.089697
24,1,5/21/2014 10:39,5/21/2014,10:39:00,10,2.01E+11,3800 BLOCK KENSINGTON AVE,1600,Prostitution and Commercialized Vice,17,2014-05,-75.099339,40.004258
24,2,9/8/2014 20:29,9/8/2014,20:29:00,20,2.01E+11,3000 BLOCK B ST,1800,Narcotic / Drug Law Violations,17,2014-09,-75.126093,39.994974
24,3,10/7/2014 4:33,10/7/2014,4:33:00,4,2.01E+11,2300 BLOCK E CLEARFIELD ST,500,Burglary,17,2014-10,-75.109084,39.98751
3,1,12/1/2014 16:09,12/1/2014,16:09:00,16,2.01E+11,300 BLOCK LOMBARD ST,600,Thefts,3,2014-12,-75.148911,39.942589
14,3,10/16/2014 11:10,10/16/2014,11:10:00,11,2.01E+11,0 BLOCK W COULTER ST,600,Thefts,10,2014-10,-75.171544,40.032155
14,1,6/5/2014 20:39,6/5/2014,20:39:00,20,2.01E+11,2400 BLOCK 78TH AVE,500,Burglary,10,2014-06,-75.158299,40.071497
16,1,8/6/2014 13:11,8/6/2014,13:11:00,13,2.01E+11,600 BLOCK N 34TH ST,1100,Fraud,12,2014-08,-75.191594,39.964356
17,3,11/3/2014 12:15,11/3/2014,12:15:00,12,2.01E+11,1200 BLOCK POINT BREEZE AVE,600,Thefts,13,2014-11,-75.177304,39.936733
17,2,10/19/2014 16:30,10/19/2014,16:30:00,16,2.01E+11,2800 BLOCK REED ST,1400,Vandalism/Criminal Mischief,13,2014-10,-75.190767,39.935842
25,4,8/28/2014 0:44,8/28/2014,0:44:00,0,2.01E+11,1300 BLOCK W SOMERSET ST,1800,Narcotic / Drug Law Violations,18,2014-08,-75.152064,39.995202
1,2,10/6/2014 14:43,10/6/2014,14:43:00,14,2.01E+11,2200 BLOCK OREGON AVE,600,Thefts,1,2014-10,-75.185227,39.918538
24,1,1/26/2014 19:11,1/26/2014,19:11:00,19,2.01E+11,2200 BLOCK WHEATSHEAF LN,600,Thefts,17,2014-01,-75.09161,39.99986
2,2,6/1/2014 10:31,6/1/2014,10:31:00,10,2.01E+11,6100 BLOCK PALMETTO ST,400,Aggravated Assault,2,2014-06,-75.097962,40.04556
35,2,11/12/2014 15:01,11/12/2014,15:01:00,15,2.01E+11,N 04TH ST / LINDLEY AVE,300,Robbery,20,2014-11,-75.130328,40.028546
24,2,9/2/2014 16:18,9/2/2014,16:18:00,16,2.01E+11,1800 BLOCK E ALLEGHENY AVLLEGHENY AVE,2300,Public Drunkenness,17,2014-09,-75.113374,39.996457
9,1,6/14/2014 15:38,6/14/2014,15:38:00,15,2.01E+11,1600 BLOCK WALNUT ST,600,Thefts,8,2014-06,-75.167694,39.949809
16,2,11/10/2014 19:15,11/10/2014,19:15:00,19,2.01E+11,0 BLOCK N 52ND ST,600,Thefts,12,2014-11,-75.224767,39.960248
12,3,10/11/2014 1:13,10/11/2014,1:13:00,1,2.01E+11,2600 BLOCK SHIELDS ST,500,Burglary,9,2014-10,-75.229603,39.918597
15,3,10/18/2014 20:49,10/18/2014,20:49:00,20,2.01E+11,7300 BLOCK LEON ST,2100,Driving Under The Influence,11,2014-10,-75.042546,40.03778
18,3,8/29/2014 10:53,8/29/2014,10:53:00,10,2.01E+11,3600 BLOCK CHESTNUT ST,600,Thefts,14,2014-08,-75.194892,39.954768
9,1,8/22/2014 11:08,8/22/2014,11:08:00,11,2.01E+11,1700 BLOCK WALNUT ST,1100,Fraud,8,2014-08,-75.169534,39.949953
22,2,10/22/2014 14:21,10/22/2014,14:21:00,14,2.01E+11,2900 BLOCK W HUNTINGDON ST,600,Thefts,16,2014-10,-75.178953,39.995424
18,1,7/1/2014 17:46,7/1/2014,17:46:00,17,2.01E+11,5900 BLOCK WEBSTER ST,1800,Narcotic / Drug Law Violations,14,2014-07,-75.241303,39.949895
22,3,12/4/2014 12:14,12/4/2014,12:14:00,12,2.01E+11,1900 BLOCK W MONTGOMERY AV,600,Thefts,16,2014-12,-75.165546,39.981215
5,3,12/23/2014 17:16,12/23/2014,17:16:00,17,2.01E+11,800 BLOCK GRAKYN LN,1100,Fraud,4,2014-12,-75.235902,40.066225
6,3,7/29/2014 0:07,7/29/2014,0:07:00,0,2.01E+11,700 BLOCK LOMBARD ST,300,Robbery,5,2014-07,-75.153953,39.943293
14,2,1/23/2014 0:45,1/23/2014,0:45:00,0,2.01E+11,6200 BLOCK MAGNOLIA ST,1100,Fraud,10,2014-01,-75.175551,40.04647
9,2,2/3/2014 14:35,2/3/2014,14:35:00,14,2.01E+11,1600 BLOCK CHESTNUT STREE ST,600,Thefts,8,2014-02,-75.167495,39.951269
2,3,1/3/2014 16:16,1/3/2014,16:16:00,16,2.01E+11,7500 BLOCK CENTRAL AVE,500,Burglary,2,2014-01,-75.087275,40.068428
12,3,1/6/2014 13:00,1/6/2014,13:00:00,13,2.01E+11,6100 BLOCK GRAYS AVE,600,Thefts,9,2014-01,-75.226254,39.927176
7,3,9/11/2014 7:10,9/11/2014,7:10:00,7,2.01E+11,400 BLOCK BYBERRY RD,500,Burglary,6,2014-09,-75.019983,40.126349
14,2,8/22/2014 21:05,8/22/2014,21:05:00,21,2.01E+11,5700 BLOCK MC MAHON AVE,400,Aggravated Assault,10,2014-08,-75.166355,40.04447
1,1,7/8/2014 2:03,7/8/2014,2:03:00,2,2.01E+11,1900 BLOCK S LAMBERT ST,1800,Narcotic / Drug Law Violations,1,2014-07,-75.18003,39.928172
6,2,11/24/2014 15:48,11/24/2014,15:48:00,15,2.01E+11,100 BLOCK CHESTNUT ST,600,Thefts,5,2014-11,-75.143768,39.948389
18,3,4/21/2014 4:09,4/21/2014,4:09:00,4,2.01E+11,3000 BLOCK SOUTH ST,500,Burglary,14,2014-04,-75.189758,39.948899
9,1,10/3/2014 18:20,10/3/2014,18:20:00,18,2.01E+11,1700 BLOCK CHESTNUT ST,600,Thefts,8,2014-10,-75.169432,39.951516
15,1,12/8/2014 12:35,12/8/2014,12:35:00,12,2.01E+11,4500 BLOCK FRANKFORD AV,600,Thefts,11,2014-12,-75.086381,40.013919
3,1,9/9/2014 19:38,9/9/2014,19:38:00,19,2.01E+11,500 BLOCK S 02ND ST,2500,Vagrancy/Loitering,3,2014-09,-75.145657,39.942026
25,3,8/1/2014 11:13,8/1/2014,11:13:00,11,2.01E+11,2700 BLOCK N 05TH ST,400,Aggravated Assault,18,2014-08,-75.140119,39.992126
17,1,4/27/2014 15:23,4/27/2014,15:23:00,15,2.01E+11,800 BLOCK S BROAD ST,600,Thefts,13,2014-04,-75.166264,39.940719
2,2,8/21/2014 20:55,8/21/2014,20:55:00,20,2.01E+11,400 BLOCK SENTNER ST,1800,Narcotic / Drug Law Violations,2,2014-08,-75.106948,40.043431
17,2,7/29/2014 19:18,7/29/2014,19:18:00,19,2.01E+11,2600 BLOCK WHARTON ST,200,Rape,13,2014-07,-75.18762,39.936761
15,2,12/13/2014 23:18,12/13/2014,23:18:00,23,2.01E+11,4600 BLOCK HELLERMAN ST,2100,Driving Under The Influence,11,2014-12,-75.050982,40.023472
8,2,1/27/2014 7:45,1/27/2014,7:45:00,7,2.01E+11,3600 BLOCK RED LION RD,1100,Fraud,7,2014-01,-74.985656,40.074833
22,1,8/5/2014 4:41,8/5/2014,4:41:00,4,2.01E+11,2100 BLOCK N BROAD ST,600,Thefts,16,2014-08,-75.156438,39.985194
7,2,6/2/2014 20:55,6/2/2014,20:55:00,20,2.01E+11,9800 BLOCK HALDEMAN AVE,500,Burglary,6,2014-06,-75.028617,40.094709
9,2,4/2/2014 5:35,4/2/2014,5:35:00,5,2.01E+11,1700 BLOCK MARKET ST,2500,Vagrancy/Loitering,8,2014-04,-75.168994,39.953096
22,3,9/14/2014 15:41,9/14/2014,15:41:00,15,2.01E+11,N BROAD ST / W GIRARD AVE,1100,Fraud,16,2014-09,-75.159428,39.971465
7,3,4/10/2014 5:32,4/10/2014,5:32:00,5,2.01E+11,10200 BLOCK RUBIN LA,600,Thefts,6,2014-04,-75.020442,40.105583
19,3,12/30/2014 23:23,12/30/2014,23:23:00,23,2.01E+11,4400 BLOCK CITY AVE,200,Rape,15,2014-12,-75.221335,40.003585
9,2,8/25/2014 17:37,8/25/2014,17:37:00,17,2.01E+11,1400 BLOCK JOHN F KENNEDY BLVD,600,Thefts,8,2014-08,-75.163933,39.953415
22,1,4/18/2014 17:59,4/18/2014,17:59:00,17,2.01E+11,N 12TH ST / W CUMBERLAND ST,1800,Narcotic / Drug Law Violations,16,2014-04,-75.151477,39.990371
18,1,3/15/2014 18:13,3/15/2014,18:13:00,18,2.01E+11,6200 BLOCK CHESTNUT ST,200,Rape,14,2014-03,-75.245338,39.960938
18,2,8/4/2014 10:48,8/4/2014,10:48:00,10,2.01E+11,5100 BLOCK LUDLOW ST,600,Thefts,14,2014-08,-75.223524,39.95921
6,1,4/7/2014 13:55,4/7/2014,13:55:00,13,2.01E+11,500 BLOCK N CHRISTOPHER COLUMBUS BLVD,400,Aggravated Assault,5,2014-04,-75.137601,39.9592
14,4,3/25/2014 2:39,3/25/2014,2:39:00,2,2.01E+11,1000 BLOCK SYDNEY ST,600,Thefts,10,2014-03,-75.178559,40.070901
2,2,11/3/2014 19:15,11/3/2014,19:15:00,19,2.01E+11,5900 BLOCK RISING SUN AV,600,Thefts,2,2014-11,-75.101454,40.044763
15,1,3/17/2014 23:05,3/17/2014,23:05:00,23,2.01E+11,1600 BLOCK HERBERT ST,1400,Vandalism/Criminal Mischief,11,2014-03,-75.082684,40.016687
15,1,6/16/2014 13:33,6/16/2014,13:33:00,13,2.01E+11,4800 BLOCK HAWTHORNE ST,400,Aggravated Assault,11,2014-06,-75.078652,40.016485
14,2,7/3/2014 20:46,7/3/2014,20:46:00,20,2.01E+11,0 BLOCK COLLOM ST,1800,Narcotic / Drug Law Violations,10,2014-07,-75.16611,40.030663
5,1,1/7/2014 11:19,1/7/2014,11:19:00,11,2.01E+11,5700 BLOCK RIDGE AVE,1100,Fraud,4,2014-01,-75.209506,40.026994
2,3,6/30/2014 11:33,6/30/2014,11:33:00,11,2.01E+11,7400 BLOCK RISING SUN AVE,1100,Fraud,2,2014-06,-75.082304,40.06327
18,1,1/15/2014 11:23,1/15/2014,11:23:00,11,2.01E+11,5800 BLOCK WALNUT ST,1800,Narcotic / Drug Law Violations,14,2014-01,-75.237518,39.958408
26,2,3/31/2014 21:06,3/31/2014,21:06:00,21,2.01E+11,900 BLOCK N 06TH ST,500,Burglary,19,2014-03,-75.146779,39.968824
8,2,4/30/2014 3:38,4/30/2014,3:38:00,3,2.01E+11,9600 BLOCK ASHTON RD,600,Thefts,7,2014-04,-75.014865,40.070357
2,1,10/23/2014 16:29,10/23/2014,16:29:00,16,2.01E+11,4600 BLOCK E ROOSEVELT BLVD,600,Thefts,2,2014-10,-75.099584,40.02849
14,2,8/25/2014 11:54,8/25/2014,11:54:00,11,2.01E+11,0 BLOCK W LOGAN ST,1100,Fraud,10,2014-08,-75.161058,40.029227
7,1,6/6/2014 22:11,6/6/2014,22:11:00,22,2.01E+11,8800 BLOCK KREWSTOWN RD H7,500,Burglary,6,2014-06,-75.050001,40.082109
25,4,9/28/2014 11:20,9/28/2014,11:20:00,11,2.01E+11,1300 BLOCK W ALLEGHENY AVE,1800,Narcotic / Drug Law Violations,18,2014-09,-75.150736,40.001273
22,2,8/9/2014 20:25,8/9/2014,20:25:00,20,2.01E+11,2900 BLOCK DIAMOND ST,1800,Narcotic / Drug Law Violations,16,2014-08,-75.180644,39.987783
8,2,3/14/2014 21:58,3/14/2014,21:58:00,21,2.01E+11,9500 BLOCK LEON ST,2200,Liquor Law Violations,7,2014-03,-74.998572,40.059557
6,3,1/21/2014 16:59,1/21/2014,16:59:00,16,2.01E+11,300 BLOCK S BROAD ST,600,Thefts,5,2014-01,-75.164733,39.946549
5,1,4/21/2014 17:50,4/21/2014,17:50:00,17,2.01E+11,3700 BLOCK CRESSON ST,1400,Vandalism/Criminal Mischief,4,2014-04,-75.213317,40.019167
17,3,7/30/2014 12:29,7/30/2014,12:29:00,12,2.01E+11,1900 BLOCK MOUNTAIN ST,1800,Narcotic / Drug Law Violations,13,2014-07,-75.176555,39.930679
24,2,3/20/2014 14:33,3/20/2014,14:33:00,14,2.01E+11,3000 BLOCK B ST,1800,Narcotic / Drug Law Violations,17,2014-03,-75.126109,39.994985
6,2,9/30/2014 5:15,9/30/2014,5:15:00,5,2.01E+11,800 BLOCK MARKET ST,1100,Fraud,5,2014-09,-75.153625,39.95109
6,1,1/5/2014 17:52,1/5/2014,17:52:00,17,2.01E+11,600 BLOCK N 07TH ST,1800,Narcotic / Drug Law Violations,5,2014-01,-75.14971,39.96238
7,2,4/13/2014 15:12,4/13/2014,15:12:00,15,2.01E+11,9600 BLOCK DEDAKER ST,1100,Fraud,6,2014-04,-75.041165,40.088641
2,2,3/25/2014 16:49,3/25/2014,16:49:00,16,2.01E+11,500 BLOCK ALCOTT ST,600,Thefts,2,2014-03,-75.102183,40.042989
8,2,3/10/2014 13:40,3/10/2014,13:40:00,13,2.01E+11,2500 BLOCK GRANT AV,600,Thefts,7,2014-03,-75.024405,40.078344
25,2,10/22/2014 10:03,10/22/2014,10:03:00,10,2.01E+11,4200 BLOCK N FRONT ST,1500,Weapon Violations,18,2014-10,-75.126,40.014088
15,1,8/23/2014 16:19,8/23/2014,16:19:00,16,2.01E+11,4900 BLOCK OXFORD AVE,600,Thefts,11,2014-08,-75.084259,40.020445
6,2,3/1/2014 14:10,3/1/2014,14:10:00,14,2.01E+11,1000 BLOCK ARCH ST,1400,Vandalism/Criminal Mischief,5,2014-03,-75.15635,39.95352
25,3,4/27/2014 22:49,4/27/2014,22:49:00,22,2.01E+11,3400 BLOCK E ST,1800,Narcotic / Drug Law Violations,18,2014-04,-75.118716,40.000388
26,1,2/7/2014 20:13,2/7/2014,20:13:00,20,2.01E+11,600 BLOCK W DIAMOND ST,400,Aggravated Assault,19,2014-02,-75.144205,39.983063
2,2,6/17/2014 18:47,6/17/2014,18:47:00,18,2.01E+11,700 BLOCK ADAMS AVE,600,Thefts,2,2014-06,-75.105867,40.032218
6,3,3/5/2014 14:36,3/5/2014,14:36:00,14,2.01E+11,100 BLOCK CHESTNUT ST,1100,Fraud,5,2014-03,-75.143471,39.948264
18,3,11/10/2014 14:25,11/10/2014,14:25:00,14,2.01E+11,100 BLOCK S 42ND ST,600,Thefts,14,2014-11,-75.206377,39.954614
8,1,1/17/2014 23:52,1/17/2014,23:52:00,23,2.01E+11,4600 BLOCK EMERSON ST,2100,Driving Under The Influence,7,2014-01,-75.017903,40.040418
3,1,8/9/2014 18:14,8/9/2014,18:14:00,18,2.01E+11,800 BLOCK S 02ND ST,1400,Vandalism/Criminal Mischief,3,2014-08,-75.146688,39.936235
9,2,9/13/2014 1:17,9/13/2014,1:17:00,1,2.01E+11,1500 BLOCK MARKET ST,1100,Fraud,8,2014-09,-75.165254,39.952622
19,2,10/18/2014 4:46,10/18/2014,4:46:00,4,2.01E+11,1400 BLOCK N WANAMAKER ST,200,Rape,15,2014-10,-75.236829,39.973301
26,1,4/11/2014 12:34,4/11/2014,12:34:00,12,2.01E+11,2300 BLOCK N 07TH ST,1100,Fraud,19,2014-04,-75.145046,39.986666
17,3,4/29/2014 9:28,4/29/2014,9:28:00,9,2.01E+11,1200 BLOCK S 16TH ST,1100,Fraud,13,2014-04,-75.170617,39.935727
9,1,8/28/2014 16:05,8/28/2014,16:05:00,16,2.01E+11,200 BLOCK S 20TH ST,600,Thefts,8,2014-08,-75.173945,39.950125
15,3,9/17/2014 21:29,9/17/2014,21:29:00,21,2.01E+11,4700 BLOCK PRINCETON AVE,600,Thefts,11,2014-09,-75.038385,40.027679
17,3,5/21/2014 19:22,5/21/2014,19:22:00,19,2.01E+11,2200 BLOCK WHARTON ST,400,Aggravated Assault,13,2014-05,-75.180986,39.935821
8,2,10/22/2014 16:45,10/22/2014,16:45:00,16,2.01E+11,3200 BLOCK MORRELL AVE,1100,Fraud,7,2014-10,-74.995358,40.07724
25,4,4/1/2014 10:46,4/1/2014,10:46:00,10,2.01E+11,3600 BLOCK GERMANTOWN AVE,300,Robbery,18,2014-04,-75.150449,40.007847
7,2,4/6/2014 18:41,4/6/2014,18:41:00,18,2.01E+11,9800 BLOCK BONNER ST,1400,Vandalism/Criminal Mischief,6,2014-04,-75.024988,40.093136
3,3,11/10/2014 22:12,11/10/2014,22:12:00,22,2.01E+11,S 11TH ST / PATTISON AV,1000,Forgery and Counterfeiting,3,2014-11,-75.168517,39.904758
15,1,6/6/2014 3:04,6/6/2014,3:04:00,3,2.01E+11,4600 BLOCK TORRESDALE AVE,1600,Prostitution and Commercialized Vice,11,2014-06,-75.079269,40.010454
22,1,7/6/2014 4:10,7/6/2014,4:10:00,4,2.01E+11,GERMANTOWN AV / W HUNTINGDON ST,2100,Driving Under The Influence,19,2014-07,-75.148294,39.991502
18,2,10/1/2014 14:58,10/1/2014,14:58:00,14,2.01E+11,5300 BLOCK WALNUT ST,300,Robbery,14,2014-10,-75.228637,39.957299
19,2,4/29/2014 8:17,4/29/2014,8:17:00,8,2.01E+11,6000 BLOCK HAVERFORD AVE,400,Aggravated Assault,15,2014-04,-75.239391,39.969958
26,3,3/17/2014 14:30,3/17/2014,14:30:00,14,2.01E+11,2600 BLOCK ALMOND ST,500,Burglary,19,2014-03,-75.116227,39.978967
16,1,9/5/2014 0:45,9/5/2014,0:45:00,0,2.01E+11,3900 BLOCK PENNSGROVE ST,500,Burglary,12,2014-09,-75.202723,39.971927
12,3,10/31/2014 17:26,10/31/2014,17:26:00,17,2.01E+11,5500 BLOCK ELMWOOD AVE,1800,Narcotic / Drug Law Violations,9,2014-10,-75.216876,39.931587
8,3,11/20/2014 10:34,11/20/2014,10:34:00,10,2.01E+11,12900 BLOCK MEDFORD RD,1400,Vandalism/Criminal Mischief,7,2014-11,-74.964641,40.097737
7,3,10/2/2014 16:25,10/2/2014,16:25:00,16,2.01E+11,700 BLOCK SELMER RD,1100,Fraud,6,2014-10,-75.02808,40.109626
22,2,1/23/2014 18:11,1/23/2014,18:11:00,18,2.01E+11,2000 BLOCK N 22ND ST B,500,Burglary,16,2014-01,-75.169941,39.98504
22,4,8/8/2014 11:32,8/8/2014,11:32:00,11,2.01E+11,N 30TH ST / W GIRARD AV,600,Thefts,16,2014-08,-75.185087,39.974773
1,1,2/4/2014 0:20,2/4/2014,0:20:00,0,2.01E+11,2500 BLOCK JACKSON ST 11A,500,Burglary,1,2014-02,-75.188298,39.925483
9,2,5/5/2014 5:37,5/5/2014,5:37:00,5,2.01E+11,1700 BLOCK MARKET ST,2500,Vagrancy/Loitering,8,2014-05,-75.168978,39.953085
12,3,7/10/2014 17:02,7/10/2014,17:02:00,17,2.01E+11,5700 BLOCK WHEELER ST,500,Burglary,9,2014-07,-75.220662,39.930359
39,2,6/28/2014 20:59,6/28/2014,20:59:00,20,2.01E+11,1700 BLOCK W TIOGA ST,1800,Narcotic / Drug Law Violations,21,2014-06,-75.156753,40.006753
3,2,7/15/2014 19:42,7/15/2014,19:42:00,19,2.01E+11,0 BLOCK MIFFLIN ST,600,Thefts,3,2014-07,-75.143215,39.923442
7,1,9/14/2014 11:51,9/14/2014,11:51:00,11,2.01E+11,8500 BLOCK CASTOR AVE,600,Thefts,6,2014-09,-75.046081,40.072891
26,3,6/17/2014 16:55,6/17/2014,16:55:00,16,2.01E+11,2500 BLOCK FRANKFORD AV,600,Thefts,19,2014-06,-75.124979,39.984047
2,3,8/11/2014 10:09,8/11/2014,10:09:00,10,2.01E+11,2000 BLOCK HARTEL AVE,1100,Fraud,2,2014-08,-75.0595,40.057932
9,1,11/23/2014 12:24,11/23/2014,12:24:00,12,2.01E+11,2000 BLOCK LOCUST ST,1100,Fraud,8,2014-11,-75.175228,39.94959
8,2,6/30/2014 19:40,6/30/2014,19:40:00,19,2.01E+11,2500 BLOCK WELSH RD,1100,Fraud,7,2014-06,-75.030096,40.068755
3,1,2/23/2014 15:53,2/23/2014,15:53:00,15,2.01E+11,500 BLOCK SOUTH ST 2,600,Thefts,3,2014-02,-75.150781,39.941788
16,2,1/9/2014 0:17,1/9/2014,0:17:00,0,2.01E+11,4500 BLOCK LANCASTER AVE,400,Aggravated Assault,12,2014-01,-75.213277,39.969874
5,1,7/2/2014 14:15,7/2/2014,14:15:00,14,2.01E+11,5400 BLOCK RIDGE AVE,600,Thefts,4,2014-07,-75.208389,40.022806
25,3,5/25/2014 11:20,5/25/2014,11:20:00,11,2.01E+11,3300 BLOCK ELLA ST,500,Burglary,18,2014-05,-75.126262,40.00039
19,3,1/15/2014 17:25,1/15/2014,17:25:00,17,2.01E+11,5300 BLOCK W OXFORD ST,500,Burglary,15,2014-01,-75.22893,39.982135
15,1,10/12/2014 19:01,10/12/2014,19:01:00,19,2.01E+11,5000 BLOCK F ST,2000,Offenses Against Family and Children,11,2014-10,-75.109866,40.025228
16,2,1/22/2014 19:05,1/22/2014,19:05:00,19,2.01E+11,4000 BLOCK LANCASTER AVE,300,Robbery,12,2014-01,-75.203704,39.964048
12,1,5/11/2014 4:31,5/11/2014,4:31:00,4,2.01E+11,2400 BLOCK ISLAND AVE,600,Thefts,9,2014-05,-75.243726,39.913869
2,1,4/5/2014 15:31,4/5/2014,15:31:00,15,2.01E+11,6600 BLOCK E ROOSEVELT BLVD,600,Thefts,2,2014-04,-75.064327,40.036817
17,1,4/23/2014 11:34,4/23/2014,11:34:00,11,2.01E+11,700 BLOCK S HICKS ST,500,Burglary,13,2014-04,-75.168337,39.941619
26,1,8/4/2014 19:57,8/4/2014,19:57:00,19,2.01E+11,100 BLOCK W CUMBERLAND ST,2300,Public Drunkenness,19,2014-08,-75.13157,39.987758
2,2,4/27/2014 21:14,4/27/2014,21:14:00,21,2.01E+11,5900 BLOCK ELSINORE ST,600,Thefts,2,2014-04,-75.099822,40.042682
1,1,9/30/2014 15:09,9/30/2014,15:09:00,15,2.01E+11,2500 BLOCK S 18TH ST,600,Thefts,1,2014-09,-75.17716,39.919933
17,3,11/9/2014 2:28,11/9/2014,2:28:00,2,2.01E+11,1200 BLOCK S 16TH ST,2100,Driving Under The Influence,13,2014-11,-75.170515,39.936236
19,1,12/31/2014 16:19,12/31/2014,16:19:00,16,2.01E+11,900 BLOCK FLANDERS RD,200,Rape,15,2014-12,-75.254561,39.976123
5,2,3/8/2014 17:41,3/8/2014,17:41:00,17,2.01E+11,100 BLOCK GREEN LA,2100,Driving Under The Influence,4,2014-03,-75.225892,40.027783
18,3,3/17/2014 18:12,3/17/2014,18:12:00,18,2.01E+11,4800 BLOCK REGENT ST,300,Robbery,14,2014-03,-75.214617,39.944439
6,1,8/6/2014 10:28,8/6/2014,10:28:00,10,2.01E+11,1300 BLOCK BUTTONWOOD ST,600,Thefts,5,2014-08,-75.160053,39.961211
22,3,6/23/2014 18:55,6/23/2014,18:55:00,18,2.01E+11,1400 BLOCK N BROAD ST,600,Thefts,16,2014-06,-75.158815,39.974528
12,3,10/25/2014 23:20,10/25/2014,23:20:00,23,2.01E+11,5900 BLOCK ELMWOOD AVE,400,Aggravated Assault,9,2014-10,-75.22218,39.927986
14,4,9/19/2014 15:21,9/19/2014,15:21:00,15,2.01E+11,1100 BLOCK E MOUNT PLEASANT AVE,1400,Vandalism/Criminal Mischief,10,2014-09,-75.176047,40.0709
14,2,5/17/2014 16:39,5/17/2014,16:39:00,16,2.01E+11,500 BLOCK HIGH ST,200,Rape,10,2014-05,-75.171152,40.045659
7,3,6/12/2014 19:12,6/12/2014,19:12:00,19,2.01E+11,15000 BLOCK LIBERTY LN,1100,Fraud,6,2014-06,-74.991292,40.12489
15,1,10/20/2014 17:16,10/20/2014,17:16:00,17,2.01E+11,5200 BLOCK FRANKFORD AVE,1100,Fraud,11,2014-10,-75.078182,40.022416
26,3,5/27/2014 8:43,5/27/2014,8:43:00,8,2.01E+11,1900 BLOCK N FRONT ST,1500,Weapon Violations,19,2014-05,-75.133432,39.978679
2,2,8/25/2014 22:26,8/25/2014,22:26:00,22,2.01E+11,500 BLOCK COMLY ST,1800,Narcotic / Drug Law Violations,2,2014-08,-75.101104,40.044991
14,2,4/24/2014 21:07,4/24/2014,21:07:00,21,2.01E+11,100 BLOCK HERMAN ST,1800,Narcotic / Drug Law Violations,10,2014-04,-75.176501,40.043537
3,1,4/25/2014 21:54,4/25/2014,21:54:00,21,2.01E+11,1600 BLOCK S CHRISTOPHER COLUMBUS B,600,Thefts,3,2014-04,-75.145003,39.926682
8,3,7/29/2014 10:05,7/29/2014,10:05:00,10,2.01E+11,10900 BLOCK DECATUR RD,600,Thefts,7,2014-07,-74.991082,40.092671
24,2,11/21/2014 10:07,11/21/2014,10:07:00,10,2.01E+11,2700 BLOCK KENSINGTON AVE,1600,Prostitution and Commercialized Vice,17,2014-11,-75.125492,39.989889
16,1,2/27/2014 12:49,2/27/2014,12:49:00,12,2.01E+11,0 BLOCK N 39TH ST,400,Aggravated Assault,12,2014-02,-75.199497,39.957217
16,2,9/26/2014 10:53,9/26/2014,10:53:00,10,2.01E+11,5100 BLOCK FOLSOM ST,500,Burglary,12,2014-09,-75.223342,39.964909
16,1,1/25/2014 12:19,1/25/2014,12:19:00,12,2.01E+11,4300 BLOCK MARKET ST,2400,Disorderly Conduct,12,2014-01,-75.208161,39.957971
18,2,5/27/2014 13:28,5/27/2014,13:28:00,13,2.01E+11,5600 BLOCK CHESTNUT ST,600,Thefts,14,2014-05,-75.233214,39.95951
24,1,7/8/2014 11:44,7/8/2014,11:44:00,11,2.01E+11,2100 BLOCK WHEATSHEAF LN,500,Burglary,17,2014-07,-75.091716,40.000001
15,3,7/29/2014 18:02,7/29/2014,18:02:00,18,2.01E+11,7400 BLOCK ROWLAND AV,600,Thefts,11,2014-07,-75.040803,40.041471
15,2,5/30/2014 23:56,5/30/2014,23:56:00,23,2.01E+11,6100 BLOCK FRANKFORD AVE,1500,Weapon Violations,11,2014-05,-75.065391,40.027074
24,1,5/3/2014 2:41,5/3/2014,2:41:00,2,2.01E+11,800 BLOCK E TIOGA ST,2100,Driving Under The Influence,17,2014-05,-75.114443,40.001325
1,2,3/12/2014 16:54,3/12/2014,16:54:00,16,2.01E+11,2300 BLOCK OREGON AVE,600,Thefts,1,2014-03,-75.186057,39.918748
17,3,4/23/2014 19:34,4/23/2014,19:34:00,19,2.01E+11,2300 BLOCK DICKINSON ST,300,Robbery,13,2014-04,-75.182851,39.933566
18,3,12/7/2014 3:00,12/7/2014,3:00:00,3,2.01E+11,3700 BLOCK HAMILTON WALK,2200,Liquor Law Violations,14,2014-12,-75.197599,39.949951
2,3,7/1/2014 12:21,7/1/2014,12:21:00,12,2.01E+11,7600 BLOCK CENTRAL AVE,600,Thefts,2,2014-07,-75.087055,40.068638
2,1,5/17/2014 9:45,5/17/2014,9:45:00,9,2.01E+11,5000 BLOCK SUMMERDALE AVE,600,Thefts,2,2014-05,-75.093353,40.030466
6,1,6/15/2014 0:28,6/15/2014,0:28:00,0,2.01E+11,700 BLOCK N 08TH ST,2100,Driving Under The Influence,5,2014-06,-75.151299,39.964574
1,1,5/22/2014 20:01,5/22/2014,20:01:00,20,2.01E+11,2300 BLOCK S BROAD ST,1800,Narcotic / Drug Law Violations,1,2014-05,-75.170358,39.921854
35,2,3/19/2014 10:19,3/19/2014,10:19:00,10,2.01E+11,800 BLOCK LINDLEY AVE,1800,Narcotic / Drug Law Violations,20,2014-03,-75.137132,40.029384
18,1,5/20/2014 14:17,5/20/2014,14:17:00,14,2.01E+11,S 57TH ST / CHESTNUT ST,600,Thefts,14,2014-05,-75.235174,39.95971
18,3,10/2/2014 20:24,10/2/2014,20:24:00,20,2.01E+11,3900 BLOCK IRVING ST,600,Thefts,14,2014-10,-75.201384,39.952132
19,1,1/4/2014 11:18,1/4/2014,11:18:00,11,2.01E+11,6600 BLOCK HADDINGTON ST,1800,Narcotic / Drug Law Violations,15,2014-01,-75.252173,39.975716
3,3,12/2/2014 11:48,12/2/2014,11:48:00,11,2.01E+11,2600 BLOCK S 09TH ST,400,Aggravated Assault,3,2014-12,-75.162639,39.916923
1,1,1/11/2014 2:33,1/11/2014,2:33:00,2,2.01E+11,2300 BLOCK W PASSYUNK AVE,600,Thefts,1,2014-01,-75.185262,39.922622
17,3,8/27/2014 16:21,8/27/2014,16:21:00,16,2.01E+11,1700 BLOCK FEDERAL ST,1400,Vandalism/Criminal Mischief,13,2014-08,-75.172061,39.936451
24,2,12/13/2014 0:33,12/13/2014,0:33:00,0,2.01E+11,2900 BLOCK FRANKFORD AVE,300,Robbery,17,2014-12,-75.117721,39.989801
19,2,5/15/2014 4:05,5/15/2014,4:05:00,4,2.01E+11,5600 BLOCK W GIRARD AVE,400,Aggravated Assault,15,2014-05,-75.232575,39.970637
14,1,1/28/2014 16:53,1/28/2014,16:53:00,16,2.01E+11,6600 BLOCK BLAKEMORE ST,500,Burglary,10,2014-01,-75.177175,40.058914
24,3,1/10/2014 11:28,1/10/2014,11:28:00,11,2.01E+11,2800 BLOCK BELGRADE ST,400,Aggravated Assault,17,2014-01,-75.113228,39.981599
22,1,3/18/2014 20:25,3/18/2014,20:25:00,20,2.01E+11,2200 BLOCK N GRATZ ST,1800,Narcotic / Drug Law Violations,16,2014-03,-75.163662,39.987307
1,1,11/13/2014 16:23,11/13/2014,16:23:00,16,2.01E+11,2300 BLOCK S BOUVIER ST,1100,Fraud,1,2014-11,-75.176217,39.921777
77,A,9/30/2014 16:32,9/30/2014,16:32:00,16,2.01E+11,8800 BLOCK ESSINGTON AVE IA WAY,1100,Fraud,9,2014-09,-75.229292,39.894725
35,3,2/14/2014 16:58,2/14/2014,16:58:00,16,2.01E+11,1600 BLOCK W CHAMPLOST AVE,600,Thefts,20,2014-02,-75.147076,40.044826
3,2,10/22/2014 13:01,10/22/2014,13:01:00,13,2.01E+11,1600 BLOCK S CHRISTOPHER COLUMBUS BLVD,600,Thefts,3,2014-10,-75.14502,39.926471
6,3,5/30/2014 20:06,5/30/2014,20:06:00,20,2.01E+11,200 BLOCK WALNUT ST,600,Thefts,5,2014-05,-75.145344,39.946934
35,2,12/2/2014 11:21,12/2/2014,11:21:00,11,2.01E+11,1300 BLOCK WINDRIM AVE,600,Thefts,20,2014-12,-75.14566,40.030051
19,3,3/24/2014 16:51,3/24/2014,16:51:00,16,2.01E+11,5400 BLOCK LANSDOWNE AVE,600,Thefts,15,2014-03,-75.230896,39.976919
39,1,7/13/2014 21:07,7/13/2014,21:07:00,21,2.01E+11,500 BLOCK MANHEIM ST,500,Burglary,21,2014-07,-75.173611,40.02128
2,3,8/25/2014 13:50,8/25/2014,13:50:00,13,2.01E+11,2300 BLOCK COTTMAN AVE,600,Thefts,2,2014-08,-75.058367,40.046865
18,3,10/19/2014 15:40,10/19/2014,15:40:00,15,2.01E+11,3900 BLOCK SPRUCE ST,600,Thefts,14,2014-10,-75.200882,39.951435
14,4,7/29/2014 10:51,7/29/2014,10:51:00,10,2.01E+11,8400 BLOCK GERMANTOWN AV,600,Thefts,10,2014-07,-75.204967,40.075114
12,3,9/8/2014 20:20,9/8/2014,20:20:00,20,2.01E+11,6100 BLOCK WOODLAND AVE,600,Thefts,9,2014-09,-75.230176,39.928428
14,1,12/27/2014 17:06,12/27/2014,17:06:00,17,2.01E+11,6700 BLOCK ANDERSON ST,500,Burglary,10,2014-12,-75.176688,40.061898
1,2,8/23/2014 15:07,8/23/2014,15:07:00,15,2.01E+11,1700 BLOCK JOHNSTON ST,600,Thefts,1,2014-08,-75.17691,39.916131
15,1,4/24/2014 21:18,4/24/2014,21:18:00,21,2.01E+11,4500 BLOCK FRANKFORD AVE,1600,Prostitution and Commercialized Vice,11,2014-04,-75.086364,40.013908
9,1,10/16/2014 14:44,10/16/2014,14:44:00,14,2.01E+11,100 BLOCK S BROAD ST,600,Thefts,8,2014-10,-75.164149,39.950511
3,2,7/24/2014 16:34,7/24/2014,16:34:00,16,2.01E+11,2300 BLOCK S CHRISTOPHER COLUMBUS BLVD,1100,Fraud,3,2014-07,-75.140052,39.918646
9,1,3/23/2014 16:31,3/23/2014,16:31:00,16,2.01E+11,100 BLOCK S 20TH ST,600,Thefts,8,2014-03,-75.173673,39.950964
15,1,10/5/2014 14:37,10/5/2014,14:37:00,14,2.01E+11,2100 BLOCK WAKELING ST,600,Thefts,11,2014-10,-75.073136,40.011967
5,1,1/19/2014 20:17,1/19/2014,20:17:00,20,2.01E+11,400 BLOCK SHURS LN,500,Burglary,4,2014-01,-75.211063,40.026127
24,1,2/19/2014 16:12,2/19/2014,16:12:00,16,2.01E+11,1800 BLOCK E THAYER ST,1800,Narcotic / Drug Law Violations,17,2014-02,-75.109306,39.998689
16,1,12/11/2014 12:39,12/11/2014,12:39:00,12,2.01E+11,4000 BLOCK POPLAR ST,300,Robbery,12,2014-12,-75.204112,39.972654
3,1,5/7/2014 8:25,5/7/2014,8:25:00,8,2.01E+11,600 BLOCK CATHARINE ST,600,Thefts,3,2014-05,-75.154076,39.938843
14,2,10/4/2014 1:44,10/4/2014,1:44:00,1,2.01E+11,E CHELTEN AV / MC MAHON AV,600,Thefts,10,2014-10,-75.166088,40.044253
22,1,3/8/2014 14:19,3/8/2014,14:19:00,14,2.01E+11,2200 BLOCK N VAN PELT ST,1100,Fraud,16,2014-03,-75.168285,39.988273
8,2,12/15/2014 20:00,12/15/2014,20:00:00,20,2.01E+11,3600 BLOCK E CROWN AVE,1100,Fraud,7,2014-12,-74.985042,40.069206
26,2,7/7/2014 9:03,7/7/2014,9:03:00,9,2.01E+11,900 BLOCK N BODINE ST,600,Thefts,19,2014-07,-75.141327,39.965414
16,2,3/12/2014 13:37,3/12/2014,13:37:00,13,2.01E+11,4100 BLOCK PENNSGROVE ST,1800,Narcotic / Drug Law Violations,12,2014-03,-75.206258,39.970909
12,2,11/1/2014 17:18,11/1/2014,17:18:00,17,2.01E+11,2100 BLOCK S 70TH ST,1400,Vandalism/Criminal Mischief,9,2014-11,-75.241581,39.920664
2,1,7/31/2014 7:29,7/31/2014,7:29:00,7,2.01E+11,4800 BLOCK E ROOSEVELT BLVD,2100,Driving Under The Influence,2,2014-07,-75.094302,40.026921
25,3,9/2/2014 2:15,9/2/2014,2:15:00,2,2.01E+11,700 BLOCK E ATLANTIC ST,400,Aggravated Assault,18,2014-09,-75.11626,40.002035
8,2,5/25/2014 19:41,5/25/2014,19:41:00,19,2.01E+11,9700 BLOCK E ROOSEVELT BLVD,600,Thefts,7,2014-05,-75.023063,40.086143
24,2,6/8/2014 20:32,6/8/2014,20:32:00,20,2.01E+11,3000 BLOCK GRANSBACK ST,600,Thefts,17,2014-06,-75.121268,39.994858
16,2,5/14/2014 14:25,5/14/2014,14:25:00,14,2.01E+11,4800 BLOCK LANCASTER AV,1400,Vandalism/Criminal Mischief,12,2014-05,-75.217466,39.972405
14,1,6/9/2014 23:52,6/9/2014,23:52:00,23,2.01E+11,7800 BLOCK RUGBY ST,1800,Narcotic / Drug Law Violations,10,2014-06,-75.166635,40.068522
25,4,2/6/2014 22:09,2/6/2014,22:09:00,22,2.01E+11,3500 BLOCK N 08TH ST,1500,Weapon Violations,18,2014-02,-75.142486,40.005005
18,2,11/24/2014 17:20,11/24/2014,17:20:00,17,2.01E+11,N 56TH ST / MARKET ST,1100,Fraud,14,2014-11,-75.23286,39.960985
15,1,5/3/2014 21:19,5/3/2014,21:19:00,21,2.01E+11,2400 BLOCK DUNCAN ST,600,Thefts,11,2014-05,-75.080156,40.003876
24,1,2/19/2014 11:01,2/19/2014,11:01:00,11,2.01E+11,1300 BLOCK E LUZERNE ST,600,Thefts,17,2014-02,-75.102365,40.007621
22,3,7/16/2014 16:39,7/16/2014,16:39:00,16,2.01E+11,1200 BLOCK N 15TH ST,600,Thefts,16,2014-07,-75.16112,39.9719
12,4,5/30/2014 17:02,5/30/2014,17:02:00,17,2.01E+11,4900 BLOCK BALTIMORE AVE,400,Aggravated Assault,9,2014-05,-75.221257,39.948113
19,2,7/12/2014 8:39,7/12/2014,8:39:00,8,2.01E+11,200 BLOCK N 60TH ST,600,Thefts,15,2014-07,-75.239974,39.965884
22,4,6/3/2014 8:53,6/3/2014,8:53:00,8,2.01E+11,1500 BLOCK HEMBERGER WAY 401,2000,Offenses Against Family and Children,16,2014-06,-75.172748,39.977813
6,2,7/15/2014 16:49,7/15/2014,16:49:00,16,2.01E+11,1000 BLOCK FILBERT ST,600,Thefts,5,2014-07,-75.156528,39.952611
8,3,8/7/2014 9:53,8/7/2014,9:53:00,9,2.01E+11,2900 BLOCK BLACK LAKE PL,1400,Vandalism/Criminal Mischief,7,2014-08,-74.983078,40.108408
3,2,12/4/2014 21:05,12/4/2014,21:05:00,21,2.01E+11,2100 BLOCK S CHRISTOPHER COLUMBUS BLVD,600,Thefts,3,2014-12,-75.141235,39.920435
12,3,12/2/2014 7:05,12/2/2014,7:05:00,7,2.01E+11,6100 BLOCK ELMWOOD AVE,500,Burglary,9,2014-12,-75.224822,39.926022
39,2,4/9/2014 3:50,4/9/2014,3:50:00,3,2.01E+11,4400 BLOCK N UBER ST,900,Arson,21,2014-04,-75.157467,40.022004
9,3,12/29/2014 16:53,12/29/2014,16:53:00,16,2.01E+11,800 BLOCK N 23RD ST,1100,Fraud,8,2014-12,-75.174426,39.971525
25,2,5/29/2014 16:29,5/29/2014,16:29:00,16,2.01E+11,300 BLOCK W WYOMING AVE,600,Thefts,18,2014-05,-75.130703,40.022287
6,2,6/12/2014 13:11,6/12/2014,13:11:00,13,2.01E+11,300 BLOCK VINE ST,600,Thefts,5,2014-06,-75.144877,39.955863
14,1,9/11/2014 1:24,9/11/2014,1:24:00,1,2.01E+11,7400 BLOCK N 21ST ST,400,Aggravated Assault,10,2014-09,-75.151472,40.067985
6,3,9/26/2014 12:07,9/26/2014,12:07:00,12,2.01E+11,1200 BLOCK WALNUT ST,600,Thefts,5,2014-09,-75.161385,39.948944
16,2,10/10/2014 8:41,10/10/2014,8:41:00,8,2.01E+11,N 48TH ST / HAVERFORD AV,600,Thefts,12,2014-10,-75.216194,39.962486
3,1,11/12/2014 11:43,11/12/2014,11:43:00,11,2.01E+11,300 BLOCK SOUTH ST,1200,Embezzlement,3,2014-11,-75.148332,39.941482
15,3,9/26/2014 17:12,9/26/2014,17:12:00,17,2.01E+11,6300 BLOCK MERSHON ST,1400,Vandalism/Criminal Mischief,11,2014-09,-75.064495,40.031095
15,1,12/5/2014 16:44,12/5/2014,16:44:00,16,2.01E+11,4600 BLOCK FRANKFORD AVE,1100,Fraud,11,2014-12,-75.08554,40.014849
39,1,11/22/2014 18:16,11/22/2014,18:16:00,18,2.01E+11,5200 BLOCK GREENE ST 1,1400,Vandalism/Criminal Mischief,21,2014-11,-75.168898,40.029444
19,2,11/30/2014 16:59,11/30/2014,16:59:00,16,2.01E+11,300 BLOCK N EDGEWOOD ST,400,Aggravated Assault,15,2014-11,-75.240552,39.968086
3,1,7/24/2014 10:57,7/24/2014,10:57:00,10,2.01E+11,200 BLOCK BAINBRIDGE ST,400,Aggravated Assault,3,2014-07,-75.145861,39.94026
35,2,10/28/2014 14:43,10/28/2014,14:43:00,14,2.01E+11,1300 BLOCK W LOUDON ST,1500,Weapon Violations,20,2014-10,-75.145412,40.025847
12,4,9/12/2014 20:30,9/12/2014,20:30:00,20,2.01E+11,1400 BLOCK S ALLISON ST,1800,Narcotic / Drug Law Violations,9,2014-09,-75.226374,39.939036
2,1,5/6/2014 22:42,5/6/2014,22:42:00,22,2.01E+11,6300 BLOCK CASTOR AV,600,Thefts,2,2014-05,-75.078551,40.03819
16,1,3/6/2014 16:53,3/6/2014,16:53:00,16,2.01E+11,3400 BLOCK BARING ST,500,Burglary,12,2014-03,-75.191323,39.961471
24,2,4/8/2014 12:49,4/8/2014,12:49:00,12,2.01E+11,2700 BLOCK KENSINGTON AVE,1600,Prostitution and Commercialized Vice,17,2014-04,-75.125493,39.989897
14,2,9/5/2014 21:14,9/5/2014,21:14:00,21,2.01E+11,E DUVAL ST / MORTON ST,600,Thefts,10,2014-09,-75.179207,40.047154
15,2,10/4/2014 5:46,10/4/2014,5:46:00,5,2.01E+11,5800 BLOCK TORRESDALE AVE,1800,Narcotic / Drug Law Violations,11,2014-10,-75.061853,40.016384
18,2,4/25/2014 11:19,4/25/2014,11:19:00,11,2.01E+11,5500 BLOCK PINE ST,1500,Weapon Violations,14,2014-04,-75.232456,39.954258
16,2,3/11/2014 16:52,3/11/2014,16:52:00,16,2.01E+11,4000 BLOCK ASPEN ST,1800,Narcotic / Drug Law Violations,12,2014-03,-75.202863,39.966251
2,3,7/28/2014 1:39,7/28/2014,1:39:00,1,2.01E+11,7100 BLOCK LARGE ST,600,Thefts,2,2014-07,-75.067105,40.047075
15,2,9/2/2014 21:22,9/2/2014,21:22:00,21,2.01E+11,6100 BLOCK TORRESDALE AVE,300,Robbery,11,2014-09,-75.057451,40.018637
18,1,10/20/2014 19:03,10/20/2014,19:03:00,19,2.01E+11,100 BLOCK S 61ST ST,1100,Fraud,14,2014-10,-75.243007,39.960666
1,2,9/14/2014 14:56,9/14/2014,14:56:00,14,2.01E+11,2200 BLOCK OREGON AVE,600,Thefts,1,2014-09,-75.184449,39.918408
22,1,1/2/2014 11:58,1/2/2014,11:58:00,11,2.01E+11,2300 BLOCK N BROAD ST,600,Thefts,16,2014-01,-75.155867,39.987953
9,2,9/20/2014 2:12,9/20/2014,2:12:00,2,2.01E+11,1800 BLOCK RANSTEAD ST,600,Thefts,8,2014-09,-75.170426,39.952277
24,2,5/13/2014 15:20,5/13/2014,15:20:00,15,2.01E+11,100 BLOCK E LIPPINCOTT ST,1100,Fraud,17,2014-05,-75.128432,39.997527
2,1,9/11/2014 16:44,9/11/2014,16:44:00,16,2.01E+11,6600 BLOCK HARBISON AVE,300,Robbery,2,2014-09,-75.064495,40.036924
15,1,10/3/2014 17:18,10/3/2014,17:18:00,17,2.01E+11,5200 BLOCK FRANKFORD AVE,1100,Fraud,11,2014-10,-75.078182,40.022416
9,1,12/14/2014 0:24,12/14/2014,0:24:00,0,2.01E+11,2000 BLOCK SANSOM ST,600,Thefts,8,2014-12,-75.175025,39.951512
17,2,8/31/2014 2:30,8/31/2014,2:30:00,2,2.01E+11,34600 BLOCK EB SCHUYLKILL EXPY,2100,Driving Under The Influence,13,2014-08,-75.196384,39.939677
15,2,3/29/2014 1:49,3/29/2014,1:49:00,1,2.01E+11,6000 BLOCK DITMAN ST,2100,Driving Under The Influence,11,2014-03,-75.060242,40.018758
5,3,11/4/2014 9:11,11/4/2014,9:11:00,9,2.01E+11,300 BLOCK SHAWMONT AV,600,Thefts,4,2014-11,-75.24341,40.049984
12,3,4/6/2014 0:39,4/6/2014,0:39:00,0,2.01E+11,5500 BLOCK GREENWAY AVE,1800,Narcotic / Drug Law Violations,9,2014-04,-75.221607,39.936417
24,2,12/31/2014 14:10,12/31/2014,14:10:00,14,2.01E+11,2700 BLOCK A ST,1800,Narcotic / Drug Law Violations,17,2014-12,-75.129028,39.990672
12,4,12/17/2014 20:18,12/17/2014,20:18:00,20,2.01E+11,900 BLOCK S 54TH ST,400,Aggravated Assault,9,2014-12,-75.230088,39.945804
6,1,11/5/2014 8:59,11/5/2014,8:59:00,8,2.01E+11,200 BLOCK WOOD ST,600,Thefts,5,2014-11,-75.142429,39.956097
24,2,11/15/2014 2:32,11/15/2014,2:32:00,2,2.01E+11,3000 BLOCK TULIP ST,400,Aggravated Assault,17,2014-11,-75.110185,39.988216
35,1,9/10/2014 8:25,9/10/2014,8:25:00,8,2.01E+11,6700 BLOCK N 12TH ST,500,Burglary,20,2014-09,-75.137312,40.054921
25,3,2/21/2014 22:04,2/21/2014,22:04:00,22,2.01E+11,2900 BLOCK N LAWRENCE ST,1800,Narcotic / Drug Law Violations,18,2014-02,-75.138634,39.995108
22,4,8/11/2014 21:26,8/11/2014,21:26:00,21,2.01E+11,2900 BLOCK W FLORA ST,2400,Disorderly Conduct,16,2014-08,-75.183415,39.975001
16,1,2/13/2014 15:29,2/13/2014,15:29:00,15,2.01E+11,3300 BLOCK MARKET ST,600,Thefts,12,2014-02,-75.189807,39.955685
25,3,4/5/2014 16:53,4/5/2014,16:53:00,16,2.01E+11,600 BLOCK E CORNWALL ST,1100,Fraud,18,2014-04,-75.118563,39.999195
12,1,6/20/2014 22:19,6/20/2014,22:19:00,22,2.01E+11,2500 BLOCK S 70TH ST,2100,Driving Under The Influence,9,2014-06,-75.237426,39.917155
6,2,11/21/2014 16:39,11/21/2014,16:39:00,16,2.01E+11,1200 BLOCK MARKET ST,600,Thefts,5,2014-11,-75.160656,39.952058
8,2,9/18/2014 10:00,9/18/2014,10:00:00,10,2.01E+11,9300 BLOCK ANDOVER RD,600,Thefts,7,2014-09,-75.011533,40.064723
8,1,8/4/2014 20:06,8/4/2014,20:06:00,20,2.01E+11,8000 BLOCK STATE RD,1800,Narcotic / Drug Law Violations,7,2014-08,-75.021658,40.031242
39,2,3/13/2014 5:42,3/13/2014,5:42:00,5,2.01E+11,1500 BLOCK BLAVIS ST,600,Thefts,21,2014-03,-75.15043,40.020909
25,4,7/25/2014 8:31,7/25/2014,8:31:00,8,2.01E+11,1300 BLOCK W LEHIGH AV,600,Thefts,18,2014-07,-75.152549,39.993722
25,4,5/10/2014 19:05,5/10/2014,19:05:00,19,2.01E+11,GERMANTOWN AV / W ALLEGHENY AVE,1500,Weapon Violations,18,2014-05,-75.148134,40.000986
15,1,8/31/2014 12:24,8/31/2014,12:24:00,12,2.01E+11,5000 BLOCK HAWTHORNE ST,1100,Fraud,11,2014-08,-75.076466,40.019018
35,3,9/24/2014 9:03,9/24/2014,9:03:00,9,2.01E+11,1700 BLOCK CHELTEN AVE,1500,Weapon Violations,20,2014-09,-75.147029,40.051221
22,3,8/3/2014 17:58,8/3/2014,17:58:00,17,2.01E+11,1700 BLOCK CECIL B MOORE AVE,1800,Narcotic / Drug Law Violations,16,2014-08,-75.162719,39.979259
5,2,3/10/2014 16:06,3/10/2014,16:06:00,16,2.01E+11,4500 BLOCK WILDE ST,600,Thefts,4,2014-03,-75.225389,40.029205
2,3,4/10/2014 11:12,4/10/2014,11:12:00,11,2.01E+11,7600 BLOCK BURHOLME AVE,600,Thefts,2,2014-04,-75.092119,40.072283
19,3,7/1/2014 20:00,7/1/2014,20:00:00,20,2.01E+11,4000 BLOCK MONUMENT RD,600,Thefts,15,2014-07,-75.213473,40.0066
18,2,6/11/2014 13:12,6/11/2014,13:12:00,13,2.01E+11,100 BLOCK S 56TH ST 6,400,Aggravated Assault,14,2014-06,-75.23335,39.958826
24,1,9/5/2014 10:10,9/5/2014,10:10:00,10,2.01E+11,1800 BLOCK E CORNWALL ST,400,Aggravated Assault,17,2014-09,-75.110043,39.997637
2,3,4/2/2014 21:25,4/2/2014,21:25:00,21,2.01E+11,800 BLOCK COTTMAN AVE,600,Thefts,2,2014-04,-75.08587,40.062628
2,2,11/14/2014 20:20,11/14/2014,20:20:00,20,2.01E+11,300 BLOCK PASSMORE ST,300,Robbery,2,2014-11,-75.09775,40.052272
9,3,12/10/2014 7:52,12/10/2014,7:52:00,7,2.01E+11,2900 BLOCK POPLAR ST,600,Thefts,8,2014-12,-75.183813,39.973192
26,3,10/22/2014 8:30,10/22/2014,8:30:00,8,2.01E+11,1900 BLOCK N FRONT ST,1500,Weapon Violations,19,2014-10,-75.133449,39.978689
3,2,11/15/2014 16:20,11/15/2014,16:20:00,16,2.01E+11,2700 BLOCK S FRONT ST,600,Thefts,3,2014-11,-75.150003,39.913953
2,1,1/30/2014 16:04,1/30/2014,16:04:00,16,2.01E+11,1100 BLOCK E CHELTENHAM AVE,500,Burglary,2,2014-01,-75.089342,40.034592
24,1,8/6/2014 21:38,8/6/2014,21:38:00,21,2.01E+11,1800 BLOCK E VENANGO ST,1600,Prostitution and Commercialized Vice,17,2014-08,-75.104216,40.001487
14,2,12/1/2014 3:46,12/1/2014,3:46:00,3,2.01E+11,0 BLOCK E COULTER ST,900,Arson,10,2014-12,-75.169041,40.034752
16,1,7/30/2014 10:46,7/30/2014,10:46:00,10,2.01E+11,4000 BLOCK W GIRARD AVE,500,Burglary,12,2014-07,-75.205064,39.974073
2,2,10/2/2014 10:50,10/2/2014,10:50:00,10,2.01E+11,200 BLOCK STEVENS ST,1100,Fraud,2,2014-10,-75.103276,40.050479
14,2,6/19/2014 11:16,6/19/2014,11:16:00,11,2.01E+11,400 BLOCK E WASHINGTON LN,500,Burglary,10,2014-06,-75.175267,40.048764
2,2,3/30/2014 8:22,3/30/2014,8:22:00,8,2.01E+11,6100 BLOCK NEWTOWN AV,600,Thefts,2,2014-03,-75.103249,40.05067
18,1,10/16/2014 6:33,10/16/2014,6:33:00,6,2.01E+11,400 BLOCK S 60TH ST,600,Thefts,14,2014-10,-75.242258,39.95499
15,1,9/23/2014 14:50,9/23/2014,14:50:00,14,2.01E+11,5200 BLOCK FRANKFORD AVE,1100,Fraud,11,2014-09,-75.078166,40.022405
14,3,3/2/2014 13:15,3/2/2014,13:15:00,13,2.01E+11,700 BLOCK N MOUNT PLEASANT RD,1100,Fraud,10,2014-03,-75.201175,40.048458
18,1,9/28/2014 6:00,9/28/2014,6:00:00,6,2.01E+11,S 61ST ST / MARKET ST,200,Rape,14,2014-09,-75.242722,39.962201
3,2,10/12/2014 2:15,10/12/2014,2:15:00,2,2.01E+11,1600 BLOCK S CHRISTOPHER COLUMBUS BLVD,2400,Disorderly Conduct,3,2014-10,-75.145127,39.926925
2,1,5/14/2014 18:00,5/14/2014,18:00:00,18,2.01E+11,5900 BLOCK SHISLER ST,600,Thefts,2,2014-05,-75.085616,40.035251
9,3,9/15/2014 13:57,9/15/2014,13:57:00,13,2.01E+11,700 BLOCK N 17TH ST,500,Burglary,8,2014-09,-75.16517,39.967642
39,1,7/10/2014 21:22,7/10/2014,21:22:00,21,2.01E+11,100 BLOCK W ABBOTTSFORD AVE,500,Burglary,21,2014-07,-75.163072,40.02497
2,3,9/17/2014 11:15,9/17/2014,11:15:00,11,2.01E+11,7700 BLOCK FRONTENAC ST,1100,Fraud,2,2014-09,-75.063702,40.059572
25,3,5/9/2014 19:15,5/9/2014,19:15:00,19,2.01E+11,300 BLOCK W LEHIGH AVE,2300,Public Drunkenness,18,2014-05,-75.137341,39.991771
3,3,1/12/2014 1:49,1/12/2014,1:49:00,1,2.01E+11,800 BLOCK JACKSON ST,400,Aggravated Assault,3,2014-01,-75.160026,39.921826
16,2,1/21/2014 23:10,1/21/2014,23:10:00,23,2.01E+11,5000 BLOCK ARCH ST,600,Thefts,12,2014-01,-75.222089,39.961312
25,4,2/20/2014 20:30,2/20/2014,20:30:00,20,2.01E+11,1300 BLOCK W SELTZER ST,1800,Narcotic / Drug Law Violations,18,2014-02,-75.152283,39.99491
22,3,6/6/2014 18:41,6/6/2014,18:41:00,18,2.01E+11,1600 BLOCK N BROAD ST,600,Thefts,16,2014-06,-75.158162,39.977314
15,2,5/31/2014 1:47,5/31/2014,1:47:00,1,2.01E+11,DEVEREAUX AV / TORRESDALE AVE,2100,Driving Under The Influence,11,2014-05,-75.055673,40.019503
2,1,2/26/2014 9:20,2/26/2014,9:20:00,9,2.01E+11,4600 BLOCK E ROOSEVELT BLVD,600,Thefts,2,2014-02,-75.099406,40.028375
19,3,6/22/2014 15:09,6/22/2014,15:09:00,15,2.01E+11,4700 BLOCK AVENUE OF THE REPUBLIC,600,Thefts,15,2014-06,-75.214322,39.980321
5,3,10/29/2014 12:32,10/29/2014,12:32:00,12,2.01E+11,8200 BLOCK RIDGE AV,600,Thefts,4,2014-10,-75.237585,40.058888
18,3,3/31/2014 16:20,3/31/2014,16:20:00,16,2.01E+11,3600 BLOCK SPRUCE ST,500,Burglary,14,2014-03,-75.195392,39.950757
35,2,5/17/2014 8:18,5/17/2014,8:18:00,8,2.01E+11,100 BLOCK W RUSCOMB ST,500,Burglary,20,2014-05,-75.125547,40.026835
19,2,6/7/2014 0:16,6/7/2014,0:16:00,0,2.01E+11,1300 BLOCK N HOBART ST,500,Burglary,15,2014-06,-75.237092,39.971936
25,3,5/9/2014 19:41,5/9/2014,19:41:00,19,2.01E+11,2800 BLOCK MASCHER ST,2300,Public Drunkenness,18,2014-05,-75.132584,39.992778
9,3,12/5/2014 16:55,12/5/2014,16:55:00,16,2.01E+11,2400 BLOCK PENNSYLVANIA AV 14B36,600,Thefts,8,2014-12,-75.177731,39.965679
2,3,7/2/2014 12:33,7/2/2014,12:33:00,12,2.01E+11,2000 BLOCK LANSING ST,500,Burglary,2,2014-07,-75.059712,40.057103
19,2,3/8/2014 11:36,3/8/2014,11:36:00,11,2.01E+11,N 55TH ST / PEARL ST,1800,Narcotic / Drug Law Violations,15,2014-03,-75.229772,39.966137
35,1,7/23/2014 9:24,7/23/2014,9:24:00,9,2.01E+11,600 BLOCK CHELTEN AVE,500,Burglary,20,2014-07,-75.130498,40.047735
19,1,8/7/2014 21:36,8/7/2014,21:36:00,21,2.01E+11,7300 BLOCK GREENHILL RD,1500,Weapon Violations,15,2014-08,-75.266292,39.978891
22,1,10/4/2014 16:51,10/4/2014,16:51:00,16,2.01E+11,1500 BLOCK W HUNTINGDON ST,1400,Vandalism/Criminal Mischief,16,2014-10,-75.156603,39.992538
9,2,8/1/2014 13:47,8/1/2014,13:47:00,13,2.01E+11,2000 BLOCK MARKET ST,600,Thefts,8,2014-08,-75.173285,39.953627
3,1,12/30/2014 6:19,12/30/2014,6:19:00,6,2.01E+11,500 BLOCK S 04TH ST,500,Burglary,3,2014-12,-75.149123,39.942148
17,2,5/13/2014 6:08,5/13/2014,6:08:00,6,2.01E+11,1700 BLOCK S 28TH ST,400,Aggravated Assault,13,2014-05,-75.191728,39.931411
14,3,9/7/2014 7:57,9/7/2014,7:57:00,7,2.01E+11,100 BLOCK W CLIVEDEN ST,500,Burglary,10,2014-09,-75.184688,40.045069
3,3,2/15/2014 13:39,2/15/2014,13:39:00,13,2.01E+11,1400 BLOCK S 09TH ST,600,Thefts,3,2014-02,-75.159565,39.930915
1,2,9/24/2014 8:21,9/24/2014,8:21:00,8,2.01E+11,1800 BLOCK JOHNSTON ST,600,Thefts,1,2014-09,-75.178022,39.916276
9,2,11/7/2014 17:38,11/7/2014,17:38:00,17,2.01E+11,1500 BLOCK MARKET ST,2400,Disorderly Conduct,8,2014-11,-75.165287,39.95255
2,3,5/27/2014 22:38,5/27/2014,22:38:00,22,2.01E+11,2300 BLOCK COTTMAN AVE,600,Thefts,2,2014-05,-75.058367,40.046865
12,1,9/29/2014 12:21,9/29/2014,12:21:00,12,2.01E+11,2500 BLOCK S 75TH ST,1100,Fraud,9,2014-09,-75.24491,39.910603
9,1,9/5/2014 17:02,9/5/2014,17:02:00,17,2.01E+11,2000 BLOCK WALNUT ST,500,Burglary,8,2014-09,-75.17407,39.950606
15,3,8/24/2014 10:46,8/24/2014,10:46:00,10,2.01E+11,3200 BLOCK COTTMAN AV,600,Thefts,11,2014-08,-75.047394,40.040434
18,3,12/13/2014 23:01,12/13/2014,23:01:00,23,2.01E+11,3800 BLOCK CHESTNUT ST,1100,Fraud,14,2014-12,-75.198354,39.955199
1,1,3/16/2014 18:54,3/16/2014,18:54:00,18,2.01E+11,2000 BLOCK MOORE ST,400,Aggravated Assault,1,2014-03,-75.178587,39.929256
6,3,7/22/2014 12:12,7/22/2014,12:12:00,12,2.01E+11,1300 BLOCK MARKET ST,600,Thefts,5,2014-07,-75.161469,39.952062
15,2,4/26/2014 10:46,4/26/2014,10:46:00,10,2.01E+11,5400 BLOCK AKRON ST,600,Thefts,11,2014-04,-75.079319,40.027226
5,1,12/6/2014 8:50,12/6/2014,8:50:00,8,2.01E+11,3800 BLOCK MANOR ST,1400,Vandalism/Criminal Mischief,4,2014-12,-75.21158,40.020312
9,2,8/6/2014 10:47,8/6/2014,10:47:00,10,2.01E+11,N 20TH ST / MARKET ST,600,Thefts,8,2014-08,-75.173163,39.95357
14,2,8/1/2014 17:09,8/1/2014,17:09:00,17,2.01E+11,5600 BLOCK MC MAHON AVE,1100,Fraud,10,2014-08,-75.1643,40.043185
19,2,1/19/2014 1:02,1/19/2014,1:02:00,1,2.01E+11,5800 BLOCK LANSDOWNE AVE,300,Robbery,15,2014-01,-75.236832,39.976265
3,1,6/9/2014 18:46,6/9/2014,18:46:00,18,2.01E+11,200 BLOCK BAINBRIDGE ST 1,500,Burglary,3,2014-06,-75.146179,39.940383
19,2,4/10/2014 20:44,4/10/2014,20:44:00,20,2.01E+11,0 BLOCK N PEACH ST,1800,Narcotic / Drug Law Violations,15,2014-04,-75.227452,39.960561
2,3,5/13/2014 18:46,5/13/2014,18:46:00,18,2.01E+11,7900 BLOCK LANGDON ST,600,Thefts,2,2014-05,-75.062931,40.064713
19,2,4/14/2014 1:06,4/14/2014,1:06:00,1,2.01E+11,200 BLOCK N 60TH ST,300,Robbery,15,2014-04,-75.239969,39.966
12,4,6/26/2014 20:46,6/26/2014,20:46:00,20,2.01E+11,5400 BLOCK BELMAR ST,1500,Weapon Violations,9,2014-06,-75.225309,39.940545
8,1,6/24/2014 17:17,6/24/2014,17:17:00,17,2.01E+11,2700 BLOCK AXEFACTORY RD,400,Aggravated Assault,7,2014-06,-75.031448,40.059029
24,3,4/17/2014 9:07,4/17/2014,9:07:00,9,2.01E+11,3300 BLOCK ARAMINGO AV,1400,Vandalism/Criminal Mischief,17,2014-04,-75.103851,39.989865
2,3,6/9/2014 13:09,6/9/2014,13:09:00,13,2.01E+11,7000 BLOCK LYNFORD ST,600,Thefts,2,2014-06,-75.068534,40.046629
8,2,4/19/2014 22:20,4/19/2014,22:20:00,22,2.01E+11,11000 BLOCK KIPLING LN,500,Burglary,7,2014-04,-74.98008,40.077472
5,2,9/17/2014 17:21,9/17/2014,17:21:00,17,2.01E+11,500 BLOCK FOUNTAIN ST,1100,Fraud,4,2014-09,-75.220085,40.04008
15,1,3/1/2014 19:37,3/1/2014,19:37:00,19,2.01E+11,5100 BLOCK ARAMINGO AV,1400,Vandalism/Criminal Mischief,11,2014-03,-75.069806,40.011449
16,1,10/20/2014 17:50,10/20/2014,17:50:00,17,2.01E+11,4000 BLOCK MARKET ST,1100,Fraud,12,2014-10,-75.201991,39.957205
15,3,5/14/2014 3:17,5/14/2014,3:17:00,3,2.01E+11,7900 BLOCK MARSDEN ST,600,Thefts,11,2014-05,-75.026278,40.035394
22,4,1/18/2014 0:57,1/18/2014,0:57:00,0,2.01E+11,1400 BLOCK N 29TH ST 1,400,Aggravated Assault,16,2014-01,-75.182607,39.978335
14,1,12/26/2014 17:01,12/26/2014,17:01:00,17,2.01E+11,7600 BLOCK THOURON AVE,1100,Fraud,10,2014-12,-75.16258,40.067736
14,2,12/20/2014 16:10,12/20/2014,16:10:00,16,2.01E+11,0 BLOCK E CHELTEN AV,600,Thefts,10,2014-12,-75.173821,40.036775
24,2,6/7/2014 0:55,6/7/2014,0:55:00,0,2.01E+11,1800 BLOCK E ALLEGHENY AVE,1800,Narcotic / Drug Law Violations,17,2014-06,-75.113374,39.996457
8,2,6/30/2014 14:28,6/30/2014,14:28:00,14,2.01E+11,9100 BLOCK MARSHALL ST 1,600,Thefts,7,2014-06,-75.032352,40.072146
18,3,4/15/2014 8:35,4/15/2014,8:35:00,8,2.01E+11,100 BLOCK S SCHUYLKILL AVE W,2100,Driving Under The Influence,14,2014-04,-75.181993,39.953082
26,3,3/28/2014 21:30,3/28/2014,21:30:00,21,2.01E+11,2200 BLOCK GAUL ST,1100,Fraud,19,2014-03,-75.125881,39.976261
6,3,2/20/2014 17:49,2/20/2014,17:49:00,17,2.01E+11,0 BLOCK S BROAD ST,2400,Disorderly Conduct,5,2014-02,-75.163523,39.951551
2,2,2/14/2014 10:08,2/14/2014,10:08:00,10,2.01E+11,600 BLOCK ANCHOR ST,1100,Fraud,2,2014-02,-75.100978,40.040499
1,1,5/15/2014 8:02,5/15/2014,8:02:00,8,2.01E+11,2700 BLOCK WINTON TER,1400,Vandalism/Criminal Mischief,1,2014-05,-75.191837,39.925151
39,2,8/9/2014 8:25,8/9/2014,8:25:00,8,2.01E+11,1600 BLOCK W WINGOHOCKING ST,600,Thefts,21,2014-08,-75.151776,40.021893
9,2,5/28/2014 13:18,5/28/2014,13:18:00,13,2.01E+11,1500 BLOCK CHESTNUT ST,600,Thefts,8,2014-05,-75.16597,39.951156
8,1,1/7/2014 19:49,1/7/2014,19:49:00,19,2.01E+11,8800 BLOCK FRANKFORD AVE,600,Thefts,7,2014-01,-75.011536,40.049562
14,2,4/9/2014 11:04,4/9/2014,11:04:00,11,2.01E+11,6700 BLOCK BASS ST,400,Aggravated Assault,10,2014-04,-75.182803,40.054572
25,3,11/22/2014 15:07,11/22/2014,15:07:00,15,2.01E+11,3300 BLOCK N FRONT ST 1,1100,Fraud,18,2014-11,-75.128678,40.001036
25,3,10/9/2014 20:09,10/9/2014,20:09:00,20,2.01E+11,3000 BLOCK N 04TH ST,1800,Narcotic / Drug Law Violations,18,2014-10,-75.137396,39.996482
5,1,3/11/2014 16:28,3/11/2014,16:28:00,16,2.01E+11,3700 BLOCK CRESSON ST,1100,Fraud,21,2014-03,-75.187753,40.006066
12,1,6/30/2014 5:45,6/30/2014,5:45:00,5,2.01E+11,ISLAND AV / BARTRAM AVE,2100,Driving Under The Influence,9,2014-06,-75.236663,39.894598
1,1,6/15/2014 3:46,6/15/2014,3:46:00,3,2.01E+11,S 28TH ST / PORTER ST,2100,Driving Under The Influence,1,2014-06,-75.193602,39.92234
14,4,11/18/2014 13:05,11/18/2014,13:05:00,13,2.01E+11,8400 BLOCK FORREST AVE,500,Burglary,10,2014-11,-75.17667,40.076982
25,3,10/17/2014 1:03,10/17/2014,1:03:00,1,2.01E+11,100 BLOCK W CAMBRIA ST,300,Robbery,18,2014-10,-75.130277,39.993929
12,2,2/12/2014 2:19,2/12/2014,2:19:00,2,2.01E+11,7100 BLOCK WOODLAND AVE,1800,Narcotic / Drug Law Violations,9,2014-02,-75.242977,39.919437
2,2,12/23/2014 19:05,12/23/2014,19:05:00,19,2.01E+11,700 BLOCK ADAMS AV,600,Thefts,2,2014-12,-75.106134,40.032462
25,3,7/9/2014 21:04,7/9/2014,21:04:00,21,2.01E+11,3400 BLOCK HARTVILLE ST,200,Rape,18,2014-07,-75.119162,40.000604
9,1,10/10/2014 16:09,10/10/2014,16:09:00,16,2.01E+11,1800 BLOCK WALNUT ST,600,Thefts,8,2014-10,-75.170832,39.950205
14,1,1/3/2014 19:50,1/3/2014,19:50:00,19,2.01E+11,2400 BLOCK 80TH AVE,1800,Narcotic / Drug Law Violations,10,2014-01,-75.158159,40.073184
16,1,10/1/2014 20:22,10/1/2014,20:22:00,20,2.01E+11,3800 BLOCK HAVERFORD AVE,1100,Fraud,12,2014-10,-75.198698,39.963226
12,2,1/18/2014 6:13,1/18/2014,6:13:00,6,2.01E+11,6800 BLOCK REGENT ST,600,Thefts,9,2014-01,-75.242795,39.924677
8,2,9/21/2014 15:21,9/21/2014,15:21:00,15,2.01E+11,9700 BLOCK E ROOSEVELT BLVD,600,Thefts,7,2014-09,-75.023063,40.086143
16,2,5/12/2014 10:23,5/12/2014,10:23:00,10,2.01E+11,800 BLOCK N PRESTON ST,400,Aggravated Assault,12,2014-05,-75.204177,39.967707
14,1,6/16/2014 17:45,6/16/2014,17:45:00,17,2.01E+11,6700 BLOCK LIMEKILN PIKE,600,Thefts,10,2014-06,-75.152496,40.056802
12,3,10/19/2014 22:35,10/19/2014,22:35:00,22,2.01E+11,5300 BLOCK WOODLAND AVE,1100,Fraud,9,2014-10,-75.217593,39.937299
18,2,10/24/2014 22:49,10/24/2014,22:49:00,22,2.01E+11,300 BLOCK S 52ND ST,300,Robbery,14,2014-10,-75.226062,39.954591
2,3,1/16/2014 21:32,1/16/2014,21:32:00,21,2.01E+11,7200 BLOCK CALVERT ST,300,Robbery,2,2014-01,-75.057516,40.043673
15,1,4/10/2014 22:19,4/10/2014,22:19:00,22,2.01E+11,1600 BLOCK PRATT ST,1800,Narcotic / Drug Law Violations,11,2014-04,-75.077014,40.021444
24,2,2/16/2014 13:19,2/16/2014,13:19:00,13,2.01E+11,2700 BLOCK MARTHA ST,500,Burglary,17,2014-02,-75.118537,39.986579
2,2,8/3/2014 20:46,8/3/2014,20:46:00,20,2.01E+11,6600 BLOCK TABOR AV,600,Thefts,2,2014-08,-75.088911,40.050689
26,2,8/23/2014 22:37,8/23/2014,22:37:00,22,2.01E+11,100 BLOCK W GIRARD AVE,600,Thefts,19,2014-08,-75.139069,39.969377
24,2,4/17/2014 14:22,4/17/2014,14:22:00,14,2.01E+11,2800 BLOCK C ST,1800,Narcotic / Drug Law Violations,17,2014-04,-75.124535,39.991741
2,1,5/19/2014 11:31,5/19/2014,11:31:00,11,2.01E+11,5400 BLOCK E ROOSEVELT BLVD,600,Thefts,2,2014-05,-75.086034,40.031456
39,2,7/20/2014 0:17,7/20/2014,0:17:00,0,2.01E+11,1900 BLOCK W WESTMORELAND ST,200,Rape,21,2014-07,-75.160513,40.004175
26,1,10/16/2014 12:46,10/16/2014,12:46:00,12,2.01E+11,2600 BLOCK N LAWRENCE ST,1400,Vandalism/Criminal Mischief,19,2014-10,-75.139645,39.990429
14,1,8/23/2014 3:58,8/23/2014,3:58:00,3,2.01E+11,800 BLOCK LOCUST AVE,500,Burglary,10,2014-08,-75.161621,40.045259
6,2,2/28/2014 13:59,2/28/2014,13:59:00,14,2.01E+11,700 BLOCK MARKET ST,600,Thefts,5,2014-02,-75.152042,39.950993
15,1,9/3/2014 1:56,9/3/2014,1:56:00,1,2.01E+11,4500 BLOCK CASTOR AVE,600,Thefts,11,2014-09,-75.09692,40.018321
8,1,2/7/2014 19:10,2/7/2014,19:10:00,19,2.01E+11,8000 BLOCK STATE RD,400,Aggravated Assault,7,2014-02,-75.021674,40.031253
12,1,2/21/2014 17:02,2/21/2014,17:02:00,17,2.01E+11,3000 BLOCK ISLAND AV,600,Thefts,9,2014-02,-75.239919,39.902591
25,3,12/4/2014 15:30,12/4/2014,15:30:00,15,2.01E+11,3200 BLOCK HARTVILLE ST,400,Aggravated Assault,18,2014-12,-75.119575,39.998214
9,2,6/5/2014 0:02,6/5/2014,0:02:00,0,2.01E+11,2000 BLOCK SPRING GARDEN ST,1400,Vandalism/Criminal Mischief,8,2014-06,-75.171037,39.963539
12,4,3/14/2014 9:36,3/14/2014,9:36:00,9,2.01E+11,1400 BLOCK S ALLISON ST,1800,Narcotic / Drug Law Violations,9,2014-03,-75.226161,39.938853
8,1,5/3/2014 17:08,5/3/2014,17:08:00,17,2.01E+11,2800 BLOCK HOLME AVE,1100,Fraud,7,2014-05,-75.029061,40.056663
18,2,11/16/2014 12:21,11/16/2014,12:21:00,12,2.01E+11,5400 BLOCK BALTIMORE AVE,600,Thefts,14,2014-11,-75.232886,39.947577
3,3,10/21/2014 12:19,10/21/2014,12:19:00,12,2.01E+11,1200 BLOCK DICKINSON ST,600,Thefts,3,2014-10,-75.165324,39.931395
18,2,1/18/2014 15:44,1/18/2014,15:44:00,15,2.01E+11,5600 BLOCK CHESTNUT ST,600,Thefts,14,2014-01,-75.23323,39.959521
9,1,9/18/2014 15:31,9/18/2014,15:31:00,15,2.01E+11,1800 BLOCK RITTENHOUSE SQ 505,600,Thefts,8,2014-09,-75.171217,39.948523
6,2,8/30/2014 6:51,8/30/2014,6:51:00,6,2.01E+11,200 BLOCK N 11TH ST,2400,Disorderly Conduct,5,2014-08,-75.159131,39.947683
2,3,11/5/2014 0:26,11/5/2014,0:26:00,0,2.01E+11,1400 BLOCK COTTMAN AV,600,Thefts,2,2014-11,-75.075292,40.056571
2,3,8/27/2014 21:54,8/27/2014,21:54:00,21,2.01E+11,7000 BLOCK LORETTO AV,600,Thefts,2,2014-08,-75.071915,40.047772
15,1,10/26/2014 1:54,10/26/2014,1:54:00,1,2.01E+11,2500 BLOCK WILMOT ST,600,Thefts,11,2014-10,-75.074583,40.002309
16,2,2/20/2014 8:10,2/20/2014,8:10:00,8,2.01E+11,900 BLOCK N 43RD ST,400,Aggravated Assault,12,2014-02,-75.210289,39.970904
15,1,5/1/2014 11:29,5/1/2014,11:29:00,11,2.01E+11,5200 BLOCK FRANKFORD AVE,600,Thefts,11,2014-05,-75.077359,40.022838
15,3,12/3/2014 2:25,12/3/2014,2:25:00,2,2.01E+11,7200 BLOCK FRANKFORD AVE,400,Aggravated Assault,11,2014-12,-75.04187,40.036208
15,2,10/6/2014 23:33,10/6/2014,23:33:00,23,2.01E+11,5300 BLOCK FRANKFORD AVE,900,Arson,11,2014-10,-75.076843,40.023323
15,2,9/10/2014 22:22,9/10/2014,22:22:00,22,2.01E+11,5700 BLOCK TULIP ST,1800,Narcotic / Drug Law Violations,11,2014-09,-75.061846,40.013889
2,2,10/26/2014 9:19,10/26/2014,9:19:00,9,2.01E+11,500 BLOCK ADAMS AVE,500,Burglary,2,2014-10,-75.108662,40.036622
24,1,3/12/2014 12:58,3/12/2014,12:58:00,12,2.01E+11,1300 BLOCK E ERIE AVE,1100,Fraud,17,2014-03,-75.103246,40.00557
9,2,12/20/2014 20:04,12/20/2014,20:04:00,20,2.01E+11,1700 BLOCK BENJAMIN FRANKLIN PKWY,1100,Fraud,8,2014-12,-75.167886,39.955949
15,3,3/9/2014 18:23,3/9/2014,18:23:00,18,2.01E+11,3200 BLOCK COTTMAN AV,600,Thefts,11,2014-03,-75.046724,40.04016
9,1,9/11/2014 22:47,9/11/2014,22:47:00,22,2.01E+11,1600 BLOCK CHANCELLOR ST,400,Aggravated Assault,8,2014-09,-75.16762,39.949233
2,2,6/15/2014 16:12,6/15/2014,16:12:00,16,2.01E+11,200 BLOCK E CHELTENHAM AVE,400,Aggravated Assault,2,2014-06,-75.10881,40.045575
25,2,8/31/2014 21:13,8/31/2014,21:13:00,21,2.01E+11,400 BLOCK E WYOMING AV,600,Thefts,18,2014-08,-75.118287,40.020765
15,3,3/18/2014 11:33,3/18/2014,11:33:00,11,2.01E+11,2900 BLOCK BRIGHTON ST,1400,Vandalism/Criminal Mischief,11,2014-03,-75.054876,40.039307
18,2,6/19/2014 15:22,6/19/2014,15:22:00,15,2.01E+11,S 52ND ST / LUDLOW ST,300,Robbery,14,2014-06,-75.225028,39.959219
16,1,6/5/2014 11:48,6/5/2014,11:48:00,11,2.01E+11,3200 BLOCK RACE ST,600,Thefts,12,2014-06,-75.187581,39.958812
17,3,6/17/2014 9:07,6/17/2014,9:07:00,9,2.01E+11,1800 BLOCK GERRITT ST,1800,Narcotic / Drug Law Violations,13,2014-06,-75.174361,39.933315
25,2,1/11/2014 23:55,1/11/2014,23:55:00,23,2.01E+11,1200 BLOCK W RUSH ST,400,Aggravated Assault,18,2014-01,-75.150862,39.995603
15,2,6/2/2014 1:13,6/2/2014,1:13:00,1,2.01E+11,5300 BLOCK DARRAH ST,300,Robbery,11,2014-06,-75.076056,40.022551
12,3,7/4/2014 14:46,7/4/2014,14:46:00,14,2.01E+11,6500 BLOCK DOREL ST,400,Aggravated Assault,9,2014-07,-75.227242,39.918705
18,1,3/20/2014 16:43,3/20/2014,16:43:00,16,2.01E+11,6200 BLOCK SANSOM ST,500,Burglary,14,2014-03,-75.245434,39.960254
22,3,5/20/2014 17:41,5/20/2014,17:41:00,17,2.01E+11,900 BLOCK N BROAD ST,600,Thefts,16,2014-05,-75.15973,39.970269
15,1,8/2/2014 10:54,8/2/2014,10:54:00,10,2.01E+11,1600 BLOCK DYRE ST,400,Aggravated Assault,11,2014-08,-75.078931,40.021198
9,3,9/28/2014 0:18,9/28/2014,0:18:00,0,2.01E+11,600 BLOCK N BROAD ST,600,Thefts,8,2014-09,-75.161122,39.96392
5,2,12/15/2014 15:45,12/15/2014,15:45:00,15,2.01E+11,6200 BLOCK RIDGE AV,600,Thefts,4,2014-12,-75.217816,40.036122
2,1,12/16/2014 9:13,12/16/2014,9:13:00,9,2.01E+11,4600 BLOCK E ROOSEVELT BLVD,600,Thefts,2,2014-12,-75.099584,40.02849
17,3,6/1/2014 17:12,6/1/2014,17:12:00,17,2.01E+11,1300 BLOCK POINT BREEZE AVE,1800,Narcotic / Drug Law Violations,13,2014-06,-75.178554,39.935557
12,3,3/8/2014 12:54,3/8/2014,12:54:00,12,2.01E+11,5800 BLOCK THEODORE ST,400,Aggravated Assault,9,2014-03,-75.220438,39.927813
14,2,12/10/2014 17:23,12/10/2014,17:23:00,17,2.01E+11,5100 BLOCK GERMANTOWN AV,600,Thefts,10,2014-12,-75.166449,40.030832
12,3,3/23/2014 22:30,3/23/2014,22:30:00,22,2.01E+11,2000 BLOCK S 58TH ST,400,Aggravated Assault,9,2014-03,-75.226691,39.934256
19,3,1/23/2014 10:33,1/23/2014,10:33:00,10,2.01E+11,2400 BLOCK N 54TH ST,1100,Fraud,15,2014-01,-75.233791,39.992359
24,2,10/31/2014 7:10,10/31/2014,7:10:00,7,2.01E+11,2800 BLOCK ROSEHILL ST,1800,Narcotic / Drug Law Violations,17,2014-10,-75.125281,39.991845
18,3,7/19/2014 11:48,7/19/2014,11:48:00,11,2.01E+11,3900 BLOCK BALTIMORE AV,600,Thefts,14,2014-07,-75.202217,39.949999
9,2,7/17/2014 10:48,7/17/2014,10:48:00,10,2.01E+11,1800 BLOCK CHESTNUT ST,600,Thefts,8,2014-07,-75.170511,39.951724
14,2,1/12/2014 1:51,1/12/2014,1:51:00,1,2.01E+11,300 BLOCK E CHELTEN AVE,400,Aggravated Assault,10,2014-01,-75.171621,40.038857
25,3,3/28/2014 18:36,3/28/2014,18:36:00,18,2.01E+11,100 BLOCK W CAMBRIA ST,1800,Narcotic / Drug Law Violations,18,2014-03,-75.130909,39.994101
15,2,9/4/2014 15:20,9/4/2014,15:20:00,15,2.01E+11,3000 BLOCK ROBBINS ST,600,Thefts,11,2014-09,-75.062517,40.029294
26,3,6/9/2014 18:07,6/9/2014,18:07:00,18,2.01E+11,2600 BLOCK E NORRIS ST,600,Thefts,19,2014-06,-75.12378,39.974716
35,1,3/13/2014 11:28,3/13/2014,11:28:00,11,2.01E+11,6000 BLOCK N WATER ST,600,Thefts,20,2014-03,-75.119044,40.041923
24,1,4/12/2014 19:29,4/12/2014,19:29:00,19,2.01E+11,1000 BLOCK E ERIE AVE,2100,Driving Under The Influence,17,2014-04,-75.109334,40.005349
7,2,5/11/2014 18:50,5/11/2014,18:50:00,18,2.01E+11,1800 BLOCK BERWYN ST,600,Thefts,6,2014-05,-75.03165,40.089447
6,1,7/21/2014 17:59,7/21/2014,17:59:00,18,2.01E+11,N 02ND ST / CALLOWHILL ST,1400,Vandalism/Criminal Mischief,5,2014-07,-75.142174,39.957216
15,1,12/10/2014 21:35,12/10/2014,21:35:00,21,2.01E+11,4600 BLOCK FRANKFORD AVE,1100,Fraud,11,2014-12,-75.08554,40.014849
35,2,11/28/2014 10:49,11/28/2014,10:49:00,10,2.01E+11,200 BLOCK W OLNEY AVE,400,Aggravated Assault,20,2014-11,-75.125823,40.035798
26,3,8/20/2014 5:42,8/20/2014,5:42:00,5,2.01E+11,2100 BLOCK E ALBERT ST,600,Thefts,19,2014-08,-75.122239,39.98424
3,2,9/13/2014 13:13,9/13/2014,13:13:00,13,2.01E+11,2200 BLOCK S CHRISTOPHER COLUMBUS BLVD,600,Thefts,3,2014-09,-75.140748,39.919711
35,1,8/20/2014 17:44,8/20/2014,17:44:00,17,2.01E+11,1400 BLOCK 70TH AV,600,Thefts,20,2014-08,-75.140953,40.059872
25,3,11/22/2014 20:10,11/22/2014,20:10:00,20,2.01E+11,100 BLOCK W CAMBRIA ST,1800,Narcotic / Drug Law Violations,18,2014-11,-75.130277,39.993929
8,3,10/3/2014 19:20,10/3/2014,19:20:00,19,2.01E+11,4400 BLOCK GREENMOUNT RD,2200,Liquor Law Violations,7,2014-10,-74.970226,40.078386
22,4,4/12/2014 16:16,4/12/2014,16:16:00,16,2.01E+11,1200 BLOCK KELLY DR,600,Thefts,16,2014-04,-75.192108,39.975766
2,3,7/9/2014 20:39,7/9/2014,20:39:00,20,2.01E+11,7100 BLOCK TABOR AV,600,Thefts,2,2014-07,-75.08339,40.056537
15,1,9/12/2014 21:50,9/12/2014,21:50:00,21,2.01E+11,4600 BLOCK RICHMOND ST,2200,Liquor Law Violations,11,2014-09,-75.068568,39.999754
9,2,11/11/2014 8:41,11/11/2014,8:41:00,8,2.01E+11,0 BLOCK S 16TH ST,600,Thefts,8,2014-11,-75.16702,39.951821
9,1,4/22/2014 8:41,4/22/2014,8:41:00,8,2.01E+11,100 BLOCK S 18TH ST,500,Burglary,8,2014-04,-75.170446,39.951348
1,1,2/22/2014 20:26,2/22/2014,20:26:00,20,2.01E+11,1900 BLOCK OREGON AVE,1800,Narcotic / Drug Law Violations,1,2014-02,-75.179327,39.917962
22,1,10/29/2014 2:34,10/29/2014,2:34:00,2,2.01E+11,1900 BLOCK LIACOURAS WALK,2400,Disorderly Conduct,16,2014-10,-75.15599,39.981578
18,3,10/12/2014 20:32,10/12/2014,20:32:00,20,2.01E+11,4800 BLOCK LOCUST ST,2100,Driving Under The Influence,14,2014-10,-75.21792,39.954806
14,4,11/19/2014 21:19,11/19/2014,21:19:00,21,2.01E+11,1600 BLOCK WADSWORTH AV,600,Thefts,10,2014-11,-75.172542,40.080469
15,1,5/28/2014 17:27,5/28/2014,17:27:00,17,2.01E+11,1200 BLOCK UNITY ST,1100,Fraud,11,2014-05,-75.09294,40.015647
12,3,6/8/2014 18:40,6/8/2014,18:40:00,18,2.01E+11,5500 BLOCK WOODLAND AVE,400,Aggravated Assault,9,2014-06,-75.22072,39.935076
22,4,4/14/2014 22:55,4/14/2014,22:55:00,22,2.01E+11,1300 BLOCK N 26TH ST,1100,Fraud,16,2014-04,-75.178207,39.976623
24,2,4/12/2014 19:40,4/12/2014,19:40:00,19,2.01E+11,2800 BLOCK ROSEHILL ST,1800,Narcotic / Drug Law Violations,17,2014-04,-75.125267,39.991843
16,1,2/5/2014 20:25,2/5/2014,20:25:00,20,2.01E+11,3300 BLOCK MARKET ST,600,Thefts,12,2014-02,-75.190148,39.955728
15,1,10/9/2014 18:47,10/9/2014,18:47:00,18,2.01E+11,5200 BLOCK FRANKFORD AVE,1100,Fraud,11,2014-10,-75.078182,40.022416
3,3,8/12/2014 9:17,8/12/2014,9:17:00,9,2.01E+11,800 BLOCK DUDLEY ST,500,Burglary,3,2014-08,-75.159845,39.924737
15,3,5/14/2014 0:13,5/14/2014,0:13:00,0,2.01E+11,4300 BLOCK MC MENAMY ST,900,Arson,11,2014-05,-75.030798,40.037353
22,2,4/22/2014 8:59,4/22/2014,8:59:00,9,2.01E+11,2400 BLOCK W LEHIGH AVE,400,Aggravated Assault,16,2014-04,-75.17177,39.996126
22,1,12/28/2014 20:58,12/28/2014,20:58:00,20,2.01E+11,N 18TH ST / W CUMBERLAND ST,1400,Vandalism/Criminal Mischief,16,2014-12,-75.161616,39.991695
24,2,5/27/2014 20:30,5/27/2014,20:30:00,20,2.01E+11,2800 BLOCK ROSEHILL ST,1800,Narcotic / Drug Law Violations,17,2014-05,-75.125267,39.991843
24,2,8/10/2014 15:38,8/10/2014,15:38:00,15,2.01E+11,500 BLOCK E CAMBRIA ST,400,Aggravated Assault,17,2014-08,-75.120665,39.992769
24,2,9/17/2014 15:35,9/17/2014,15:35:00,15,2.01E+11,2800 BLOCK BOUDINOT ST,1800,Narcotic / Drug Law Violations,17,2014-09,-75.123567,39.991588
19,3,7/11/2014 14:53,7/11/2014,14:53:00,14,2.01E+11,1500 BLOCK N 52ND ST 702,600,Thefts,15,2014-07,-75.225649,39.978869
2,2,10/2/2014 7:20,10/2/2014,7:20:00,7,2.01E+11,500 BLOCK SANGER ST,1100,Fraud,2,2014-10,-75.103711,40.040747
7,3,12/9/2014 11:57,12/9/2014,11:57:00,11,2.01E+11,10100 BLOCK BUSTLETON AVE,1800,Narcotic / Drug Law Violations,6,2014-12,-75.026973,40.106702
16,2,4/1/2014 4:49,4/1/2014,4:49:00,4,2.01E+11,0 BLOCK N 48TH ST,1800,Narcotic / Drug Law Violations,12,2014-04,-75.216811,39.959611
17,3,4/11/2014 17:40,4/11/2014,17:40:00,17,2.01E+11,2100 BLOCK FERNON ST,1100,Fraud,13,2014-04,-75.180449,39.931554
17,2,8/30/2014 3:09,8/30/2014,3:09:00,3,2.01E+11,34600 BLOCK EB SCHUYLKILL EXPY,2100,Driving Under The Influence,13,2014-08,-75.196384,39.939677
8,2,3/11/2014 13:24,3/11/2014,13:24:00,13,2.01E+11,3700 BLOCK CLARENDON AVE,300,Robbery,7,2014-03,-74.982313,40.066475
19,1,3/19/2014 17:05,3/19/2014,17:05:00,17,2.01E+11,900 BLOCK N 66TH ST,400,Aggravated Assault,15,2014-03,-75.252414,39.977556
1,2,7/30/2014 10:20,7/30/2014,10:20:00,10,2.01E+11,1800 BLOCK JOHNSTON ST 211,600,Thefts,1,2014-07,-75.178629,39.916441
2,2,4/26/2014 13:05,4/26/2014,13:05:00,13,2.01E+11,6000 BLOCK REACH ST,500,Burglary,2,2014-04,-75.103969,40.047884
24,1,5/6/2014 20:11,5/6/2014,20:11:00,20,2.01E+11,1900 BLOCK E WENSLEY ST,1800,Narcotic / Drug Law Violations,17,2014-05,-75.108636,39.996992
25,3,10/27/2014 11:25,10/27/2014,11:25:00,11,2.01E+11,200 BLOCK W ALLEGHENY AVE,1400,Vandalism/Criminal Mischief,18,2014-10,-75.133265,39.999028
35,1,11/14/2014 14:45,11/14/2014,14:45:00,14,2.01E+11,6100 BLOCK N BROAD ST,600,Thefts,20,2014-11,-75.143206,40.045741
1,1,7/16/2014 0:47,7/16/2014,0:47:00,0,2.01E+11,S 20TH ST / MOORE ST,1800,Narcotic / Drug Law Violations,1,2014-07,-75.178431,39.92927
25,4,12/5/2014 22:54,12/5/2014,22:54:00,22,2.01E+11,2900 BLOCK N CAMAC ST,400,Aggravated Assault,18,2014-12,-75.150733,39.997309
26,3,7/7/2014 12:52,7/7/2014,12:52:00,12,2.01E+11,1200 BLOCK CREASE ST,1100,Fraud,19,2014-07,-75.132827,39.96985
12,4,10/1/2014 18:18,10/1/2014,18:18:00,18,2.01E+11,1100 BLOCK S RUBY ST,1100,Fraud,9,2014-10,-75.226013,39.942995
25,4,4/7/2014 15:27,4/7/2014,15:27:00,15,2.01E+11,2800 BLOCK N 12TH ST,600,Thefts,18,2014-04,-75.15052,39.995073
19,2,8/23/2014 14:59,8/23/2014,14:59:00,14,2.01E+11,5700 BLOCK WYALUSING AV,600,Thefts,15,2014-08,-75.23431,39.968656
9,2,12/11/2014 11:37,12/11/2014,11:37:00,11,2.01E+11,1600 BLOCK JFK BLVD,2400,Disorderly Conduct,8,2014-12,-75.168216,39.954014
19,2,4/21/2014 13:48,4/21/2014,13:48:00,13,2.01E+11,4900 BLOCK KERSHAW ST,600,Thefts,15,2014-04,-75.221029,39.974139
19,3,1/20/2014 1:24,1/20/2014,1:24:00,1,2.01E+11,5100 BLOCK VIOLA ST,1800,Narcotic / Drug Law Violations,15,2014-01,-75.223178,39.980528
9,1,7/20/2014 2:50,7/20/2014,2:50:00,2,2.01E+11,S BROAD ST / WALNUT ST,2100,Driving Under The Influence,5,2014-07,-75.164324,39.949344
14,3,3/12/2014 8:56,3/12/2014,8:56:00,8,2.01E+11,200 BLOCK W HAINES ST,600,Thefts,10,2014-03,-75.180867,40.034721
6,3,7/8/2014 12:21,7/8/2014,12:21:00,12,2.01E+11,1200 BLOCK SAINT JAMES ST,600,Thefts,5,2014-07,-75.161507,39.948275
19,1,6/19/2014 19:09,6/19/2014,19:09:00,19,2.01E+11,2100 BLOCK N 58TH ST,1500,Weapon Violations,15,2014-06,-75.237585,39.986381
22,2,12/18/2014 9:10,12/18/2014,9:10:00,9,2.01E+11,1400 BLOCK W GIRARD AVE,300,Robbery,16,2014-12,-75.159478,39.971438
24,2,9/11/2014 20:54,9/11/2014,20:54:00,20,2.01E+11,200 BLOCK E STELLA ST,1800,Narcotic / Drug Law Violations,17,2014-09,-75.127137,39.995828
12,4,2/3/2014 11:08,2/3/2014,11:08:00,11,2.01E+11,900 BLOCK S SAINT BERNARD ST,600,Thefts,9,2014-02,-75.219533,39.945598
14,3,3/25/2014 19:56,3/25/2014,19:56:00,19,2.01E+11,0 BLOCK W HAINES ST,400,Aggravated Assault,10,2014-03,-75.177242,40.038114
5,2,5/23/2014 3:10,5/23/2014,3:10:00,3,2.01E+11,100 BLOCK LEVERING ST,600,Thefts,4,2014-05,-75.224707,40.025903
25,3,5/10/2014 23:56,5/10/2014,23:56:00,23,2.01E+11,2700 BLOCK N 02ND ST,1800,Narcotic / Drug Law Violations,18,2014-05,-75.134899,39.99146
5,3,3/6/2014 9:14,3/6/2014,9:14:00,9,2.01E+11,8500 BLOCK PARKWOOD LA,600,Thefts,4,2014-03,-75.228545,40.060734
3,3,2/20/2014 15:05,2/20/2014,15:05:00,15,2.01E+11,1400 BLOCK E PASSYUNK AVE,600,Thefts,3,2014-02,-75.160909,39.932041
39,1,7/6/2014 11:58,7/6/2014,11:58:00,11,2.01E+11,3400 BLOCK AINSLIE ST,600,Thefts,21,2014-07,-75.188943,40.013176
14,1,4/21/2014 19:03,4/21/2014,19:03:00,19,2.01E+11,7100 BLOCK OGONTZ AVE,600,Thefts,10,2014-04,-75.151736,40.062218
24,3,12/30/2014 18:11,12/30/2014,18:11:00,18,2.01E+11,3400 BLOCK ARAMINGO AVE,1400,Vandalism/Criminal Mischief,17,2014-12,-75.100485,39.991634
2,3,9/20/2014 12:28,9/20/2014,12:28:00,12,2.01E+11,400 BLOCK HARTEL AV,600,Thefts,2,2014-09,-75.087245,40.073424
16,2,7/1/2014 21:54,7/1/2014,21:54:00,21,2.01E+11,5000 BLOCK WYALUSING AVE,1600,Prostitution and Commercialized Vice,12,2014-07,-75.220817,39.969937
18,2,7/15/2014 21:30,7/15/2014,21:30:00,21,2.01E+11,S 54TH ST / DELANCEY ST,1800,Narcotic / Drug Law Violations,14,2014-07,-75.229881,39.954511
2,1,2/26/2014 23:41,2/26/2014,23:41:00,23,2.01E+11,6300 BLOCK CASTOR AVE,1800,Narcotic / Drug Law Violations,2,2014-02,-75.078654,40.038253
6,3,3/4/2014 9:47,3/4/2014,9:47:00,9,2.01E+11,800 BLOCK WALNUT ST,600,Thefts,5,2014-03,-75.154366,39.948075
25,2,9/22/2014 10:17,9/22/2014,10:17:00,10,2.01E+11,4800 BLOCK N HOWARD ST,400,Aggravated Assault,18,2014-09,-75.124943,40.024075
3,2,6/19/2014 0:32,6/19/2014,0:32:00,0,2.01E+11,300 BLOCK DICKINSON ST,600,Thefts,3,2014-06,-75.150602,39.929353
19,1,2/8/2014 21:20,2/8/2014,21:20:00,21,2.01E+11,2100 BLOCK N 59TH ST,1800,Narcotic / Drug Law Violations,15,2014-02,-75.24023,39.985238
2,1,5/21/2014 14:55,5/21/2014,14:55:00,14,2.01E+11,4600 BLOCK E ROOSEVELT BLVD,600,Thefts,2,2014-05,-75.09939,40.028364
3,3,5/28/2014 22:11,5/28/2014,22:11:00,22,2.01E+11,1300 BLOCK S 07TH ST,600,Thefts,3,2014-05,-75.156068,39.932631
15,2,8/19/2014 13:47,8/19/2014,13:47:00,13,2.01E+11,5500 BLOCK TORRESDALE AVE,600,Thefts,11,2014-08,-75.064394,40.014945
22,1,3/15/2014 4:14,3/15/2014,4:14:00,4,2.01E+11,2300 BLOCK N 17TH ST,2100,Driving Under The Influence,16,2014-03,-75.160488,39.989202
24,2,7/11/2014 15:31,7/11/2014,15:31:00,15,2.01E+11,2900 BLOCK HURLEY ST,1800,Narcotic / Drug Law Violations,17,2014-07,-75.122656,39.993586
6,3,11/21/2014 15:07,11/21/2014,15:07:00,15,2.01E+11,100 BLOCK WALNUT ST,1100,Fraud,5,2014-11,-75.143392,39.946772
14,1,7/17/2014 9:20,7/17/2014,9:20:00,9,2.01E+11,600 BLOCK BRINTON ST,600,Thefts,10,2014-07,-75.175247,40.051916
9,1,6/18/2014 12:52,6/18/2014,12:52:00,12,2.01E+11,1700 BLOCK WALNUT ST,1100,Fraud,8,2014-06,-75.169534,39.949953
2,3,9/15/2014 9:52,9/15/2014,9:52:00,9,2.01E+11,300 BLOCK CHANDLER ST,1100,Fraud,2,2014-09,-75.088448,40.07498
15,3,10/8/2014 12:46,10/8/2014,12:46:00,12,2.01E+11,7300 BLOCK ROWLAND AVE,2400,Disorderly Conduct,11,2014-10,-75.045842,40.039627
12,3,6/25/2014 6:52,6/25/2014,6:52:00,6,2.01E+11,2500 BLOCK S 61ST ST,600,Thefts,9,2014-06,-75.224266,39.925521
9,2,5/27/2014 21:14,5/27/2014,21:14:00,21,2.01E+11,1400 BLOCK JOHN F KENNEDY BLVD,600,Thefts,8,2014-05,-75.163933,39.953415
18,2,12/30/2014 10:38,12/30/2014,10:38:00,10,2.01E+11,5500 BLOCK OSAGE AVE,1100,Fraud,14,2014-12,-75.233501,39.95394
19,3,6/7/2014 10:41,6/7/2014,10:41:00,10,2.01E+11,1600 BLOCK N ALLISON ST,1800,Narcotic / Drug Law Violations,15,2014-06,-75.232914,39.977272
15,2,8/12/2014 20:34,8/12/2014,20:34:00,20,2.01E+11,5300 BLOCK JACKSON ST,600,Thefts,11,2014-08,-75.068746,40.016566
15,1,1/14/2014 19:28,1/14/2014,19:28:00,19,2.01E+11,4300 BLOCK RICHMOND ST,600,Thefts,11,2014-01,-75.074733,39.996623
22,1,8/12/2014 9:14,8/12/2014,9:14:00,9,2.01E+11,2000 BLOCK N 18TH ST,500,Burglary,16,2014-08,-75.163104,39.985037
22,2,5/24/2014 21:07,5/24/2014,21:07:00,21,2.01E+11,2000 BLOCK JUDSON ST,1800,Narcotic / Drug Law Violations,16,2014-05,-75.172336,39.985244
6,2,5/29/2014 8:42,5/29/2014,8:42:00,8,2.01E+11,300 BLOCK RACE ST,600,Thefts,5,2014-05,-75.145038,39.953988
15,3,7/16/2014 15:05,7/16/2014,15:05:00,15,2.01E+11,7300 BLOCK STATE RD,1100,Fraud,11,2014-07,-75.031286,40.025819
17,3,6/18/2014 16:02,6/18/2014,16:02:00,16,2.01E+11,1500 BLOCK REED ST,1800,Narcotic / Drug Law Violations,13,2014-06,-75.169527,39.933103
8,3,8/6/2014 23:08,8/6/2014,23:08:00,23,2.01E+11,12800 BLOCK MC CARTHY CIR,500,Burglary,7,2014-08,-74.962515,40.095031
3,2,11/20/2014 0:28,11/20/2014,0:28:00,0,2.01E+11,1600 BLOCK S CHRISTOPHER COLUMBUS BLVD,300,Robbery,3,2014-11,-75.145077,39.927336
3,2,7/26/2014 18:05,7/26/2014,18:05:00,18,2.01E+11,1400 BLOCK S WATER ST,600,Thefts,3,2014-07,-75.14559,39.929998
24,1,3/14/2014 23:16,3/14/2014,23:16:00,23,2.01E+11,4200 BLOCK ELSINORE ST,400,Aggravated Assault,17,2014-03,-75.106796,40.011507
22,1,11/23/2014 9:51,11/23/2014,9:51:00,9,2.01E+11,2100 BLOCK YORK ST,600,Thefts,16,2014-11,-75.166983,39.990801
3,1,5/9/2014 20:10,5/9/2014,20:10:00,20,2.01E+11,500 BLOCK SOUTH ST,2400,Disorderly Conduct,3,2014-05,-75.151736,39.941901
14,2,10/24/2014 10:00,10/24/2014,10:00:00,10,2.01E+11,0 BLOCK E HIGH ST,600,Thefts,10,2014-10,-75.174937,40.040362
14,1,5/18/2014 19:40,5/18/2014,19:40:00,19,2.01E+11,1600 BLOCK BARRINGER ST,600,Thefts,10,2014-05,-75.165584,40.063166
24,2,7/29/2014 18:42,7/29/2014,18:42:00,18,2.01E+11,200 BLOCK E GURNEY ST,2300,Public Drunkenness,17,2014-07,-75.128906,39.993331
1,1,3/7/2014 21:39,3/7/2014,21:39:00,21,2.01E+11,1900 BLOCK S CROSKEY ST,1400,Vandalism/Criminal Mischief,1,2014-03,-75.182837,39.928187
18,3,1/15/2014 21:54,1/15/2014,21:54:00,21,2.01E+11,3600 BLOCK WALNUT ST,600,Thefts,14,2014-01,-75.195977,39.953341
17,3,9/20/2014 22:08,9/20/2014,22:08:00,22,2.01E+11,1200 BLOCK S 17TH ST,600,Thefts,13,2014-09,-75.172117,39.936233
14,3,10/6/2014 11:11,10/6/2014,11:11:00,11,2.01E+11,5900 BLOCK GREENE ST,600,Thefts,10,2014-10,-75.179641,40.036009
7,2,1/12/2014 14:45,1/12/2014,14:45:00,14,2.01E+11,800 BLOCK RED LION RD,600,Thefts,6,2014-01,-75.032595,40.104813
25,2,9/1/2014 16:54,9/1/2014,16:54:00,16,2.01E+11,3800 BLOCK N 05TH ST,500,Burglary,18,2014-09,-75.136348,40.009474
15,3,7/24/2014 10:08,7/24/2014,10:08:00,10,2.01E+11,4200 BLOCK ALDINE ST,1100,Fraud,11,2014-07,-75.037945,40.03574
25,3,2/12/2014 14:38,2/12/2014,14:38:00,14,2.01E+11,100 BLOCK W INDIANA AV,1800,Narcotic / Drug Law Violations,18,2014-02,-75.129949,39.99543
14,2,9/5/2014 18:12,9/5/2014,18:12:00,18,2.01E+11,0 BLOCK COLLOM ST A,500,Burglary,10,2014-09,-75.164947,40.031641
8,3,10/7/2014 14:44,10/7/2014,14:44:00,14,2.01E+11,2900 BLOCK SOUTHAMPTON RD,1400,Vandalism/Criminal Mischief,7,2014-10,-74.982858,40.103288
18,1,7/10/2014 6:30,7/10/2014,6:30:00,6,2.01E+11,6000 BLOCK OSAGE AV,600,Thefts,14,2014-07,-75.242535,39.954813
6,3,10/16/2014 13:06,10/16/2014,13:06:00,13,2.01E+11,300 BLOCK QUINCE ST,200,Rape,5,2014-10,-75.160311,39.946407
6,2,12/22/2014 2:22,12/22/2014,2:22:00,2,2.01E+11,1000 BLOCK RACE ST,600,Thefts,5,2014-12,-75.156576,39.955428
9,3,6/18/2014 21:00,6/18/2014,21:00:00,21,2.01E+11,1500 BLOCK GREEN ST,600,Thefts,8,2014-06,-75.162826,39.964042
8,1,6/17/2014 7:17,6/17/2014,7:17:00,7,2.01E+11,8700 BLOCK TORRESDALE AVE E,600,Thefts,7,2014-06,-75.009523,40.043907
15,1,11/27/2014 17:57,11/27/2014,17:57:00,17,2.01E+11,5200 BLOCK FRANKFORD AVE,1100,Fraud,11,2014-11,-75.078182,40.022416
25,3,5/24/2014 14:59,5/24/2014,14:59:00,15,2.01E+11,2800 BLOCK HOPE ST,1800,Narcotic / Drug Law Violations,18,2014-05,-75.131129,39.992589
6,1,8/7/2014 8:25,8/7/2014,8:25:00,8,2.01E+11,300 BLOCK BROWN ST,1400,Vandalism/Criminal Mischief,5,2014-08,-75.143845,39.963667
15,1,11/17/2014 10:51,11/17/2014,10:51:00,10,2.01E+11,1100 BLOCK HAWORTH ST,600,Thefts,11,2014-11,-75.08686,40.024643
18,1,5/19/2014 16:25,5/19/2014,16:25:00,16,2.01E+11,0 BLOCK S 57TH ST,600,Thefts,14,2014-05,-75.23503,39.960655
24,1,9/23/2014 9:37,9/23/2014,9:37:00,9,2.01E+11,4000 BLOCK DUNGAN ST,500,Burglary,17,2014-09,-75.101786,40.007912
2,3,4/8/2014 16:07,4/8/2014,16:07:00,16,2.01E+11,7100 BLOCK PENNWAY ST,300,Robbery,2,2014-04,-75.078115,40.053178
12,1,4/7/2014 12:55,4/7/2014,12:55:00,12,2.01E+11,8100 BLOCK LYONS AVE,600,Thefts,9,2014-04,-75.245987,39.899252
35,2,6/27/2014 20:13,6/27/2014,20:13:00,20,2.01E+11,1900 BLOCK WINDRIM AVE,1500,Weapon Violations,20,2014-06,-75.156038,40.024637
18,3,10/24/2014 19:12,10/24/2014,19:12:00,19,2.01E+11,4300 BLOCK LUDLOW ST,200,Rape,14,2014-10,-75.209078,39.957293
9,3,6/23/2014 9:03,6/23/2014,9:03:00,9,2.01E+11,2300 BLOCK PARRISH ST,600,Thefts,8,2014-06,-75.175268,39.970939
26,1,4/3/2014 20:56,4/3/2014,20:56:00,20,2.01E+11,200 BLOCK W HUNTINGDON ST,1800,Narcotic / Drug Law Violations,19,2014-04,-75.135247,39.989776
15,2,7/20/2014 20:49,7/20/2014,20:49:00,20,2.01E+11,5300 BLOCK COTTAGE ST,400,Aggravated Assault,11,2014-07,-75.068877,40.01757
15,1,1/30/2014 20:51,1/30/2014,20:51:00,20,2.01E+11,5000 BLOCK F ST,400,Aggravated Assault,11,2014-01,-75.109921,40.02593
12,1,3/10/2014 16:03,3/10/2014,16:03:00,16,2.01E+11,6900 BLOCK ELMWOOD AVE,500,Burglary,9,2014-03,-75.236048,39.91812
19,2,5/2/2014 19:02,5/2/2014,19:02:00,19,2.01E+11,100 BLOCK N PEACH ST,1500,Weapon Violations,15,2014-05,-75.227191,39.961943
6,2,2/15/2014 3:46,2/15/2014,3:46:00,3,2.01E+11,600 BLOCK CHESTNUT ST,2300,Public Drunkenness,5,2014-02,-75.151019,39.949307
19,2,5/25/2014 17:16,5/25/2014,17:16:00,17,2.01E+11,100 BLOCK N SALFORD ST,1800,Narcotic / Drug Law Violations,15,2014-05,-75.239754,39.963527
9,2,8/7/2014 12:03,8/7/2014,12:03:00,12,2.01E+11,2100 BLOCK MARKET ST,1100,Fraud,8,2014-08,-75.175412,39.953886
9,3,9/14/2014 2:40,9/14/2014,2:40:00,2,2.01E+11,16TH / GREEN ST,2100,Driving Under The Influence,8,2014-09,-75.16436,39.964196
2,2,9/1/2014 18:48,9/1/2014,18:48:00,18,2.01E+11,5400 BLOCK BINGHAM ST,1800,Narcotic / Drug Law Violations,2,2014-09,-75.109233,40.035205
8,2,7/31/2014 9:47,7/31/2014,9:47:00,9,2.01E+11,3700 BLOCK CLARENDON AVE,1100,Fraud,7,2014-07,-74.984328,40.068207
9,1,2/25/2014 20:19,2/25/2014,20:19:00,20,2.01E+11,1600 BLOCK WALNUT ST,600,Thefts,8,2014-02,-75.167953,39.949851
2,3,12/20/2014 20:05,12/20/2014,20:05:00,20,2.01E+11,2000 BLOCK COTTMAN AVE,600,Thefts,2,2014-12,-75.064687,40.050468
25,3,10/21/2014 11:28,10/21/2014,11:28:00,11,2.01E+11,F ST / E HILTON ST,400,Aggravated Assault,18,2014-10,-75.117286,39.997504
22,3,6/10/2014 18:01,6/10/2014,18:01:00,18,2.01E+11,1500 BLOCK N 17TH ST,600,Thefts,16,2014-06,-75.16335,39.976547
26,1,5/10/2014 19:23,5/10/2014,19:23:00,19,2.01E+11,2400 BLOCK N MASCHER ST,500,Burglary,19,2014-05,-75.13374,39.986863
22,4,11/2/2014 14:02,11/2/2014,14:02:00,14,2.01E+11,1500 BLOCK N 22ND ST,1400,Vandalism/Criminal Mischief,16,2014-11,-75.171448,39.978092
19,2,8/27/2014 10:29,8/27/2014,10:29:00,10,2.01E+11,6100 BLOCK MARKET ST,400,Aggravated Assault,14,2014-08,-75.242722,39.962201
25,3,9/22/2014 8:15,9/22/2014,8:15:00,8,2.01E+11,2900 BLOCK N REESE ST,1400,Vandalism/Criminal Mischief,18,2014-09,-75.140159,39.995587
9,2,8/29/2014 8:55,8/29/2014,8:55:00,8,2.01E+11,300 BLOCK N BROAD ST,2100,Driving Under The Influence,8,2014-08,-75.162468,39.958119
3,1,8/23/2014 1:59,8/23/2014,1:59:00,2,2.01E+11,500 BLOCK S 03RD ST,2100,Driving Under The Influence,3,2014-08,-75.147426,39.942429
19,2,10/24/2014 3:11,10/24/2014,3:11:00,3,2.01E+11,S 56TH ST / MARKET ST,1800,Narcotic / Drug Law Violations,14,2014-10,-75.23286,39.960985
16,2,4/29/2014 17:42,4/29/2014,17:42:00,17,2.01E+11,4100 BLOCK HAVERFORD AVE,300,Robbery,12,2014-04,-75.205579,39.962546
2,3,12/27/2014 18:33,12/27/2014,18:33:00,18,2.01E+11,7700 BLOCK WATSON ST,600,Thefts,2,2014-12,-75.082246,40.069526
2,1,1/20/2014 17:06,1/20/2014,17:06:00,17,2.01E+11,6100 BLOCK FRONTENAC ST,600,Thefts,2,2014-01,-75.084477,40.037728
24,3,9/27/2014 10:53,9/27/2014,10:53:00,10,2.01E+11,2100 BLOCK E ALLEGHENY AV,600,Thefts,17,2014-09,-75.109559,39.992251
12,3,4/17/2014 21:07,4/17/2014,21:07:00,21,2.01E+11,2500 BLOCK S 66TH ST,500,Burglary,9,2014-04,-75.23106,39.920977
24,3,1/19/2014 17:03,1/19/2014,17:03:00,17,2.01E+11,2600 BLOCK CASTOR AVE,600,Thefts,17,2014-01,-75.091663,39.991462
19,2,4/3/2014 10:52,4/3/2014,10:52:00,10,2.01E+11,4800 BLOCK LANCASTER AVE,500,Burglary,15,2014-04,-75.218562,39.973066
15,3,2/24/2014 15:55,2/24/2014,15:55:00,15,2.01E+11,7200 BLOCK STATE RD,2400,Disorderly Conduct,11,2014-02,-75.032671,40.02516
22,2,9/25/2014 8:08,9/25/2014,8:08:00,8,2.01E+11,3100 BLOCK RIDGE AVE,600,Thefts,16,2014-09,-75.183634,39.989136
2,3,1/6/2014 16:05,1/6/2014,16:05:00,16,2.01E+11,1200 BLOCK ENGLEWOOD ST,1400,Vandalism/Criminal Mischief,2,2014-01,-75.072147,40.053531
3,2,11/26/2014 18:30,11/26/2014,18:30:00,18,2.01E+11,1600 BLOCK S CHRISTOPHER COLUMBUS BLVD,600,Thefts,3,2014-11,-75.145018,39.926765
3,1,8/31/2014 22:48,8/31/2014,22:48:00,22,2.01E+11,1100 BLOCK KATER ST,2400,Disorderly Conduct,3,2014-08,-75.160722,39.942562
35,3,6/4/2014 23:02,6/4/2014,23:02:00,23,2.01E+11,1500 BLOCK ORLAND ST,1500,Weapon Violations,20,2014-06,-75.143115,40.054318
9,2,9/17/2014 10:31,9/17/2014,10:31:00,10,2.01E+11,300 BLOCK N 15TH ST,2400,Disorderly Conduct,8,2014-09,-75.164116,39.958303
3,3,6/10/2014 1:05,6/10/2014,1:05:00,1,2.01E+11,2700 BLOCK S BEULAH ST,600,Thefts,3,2014-06,-75.160512,39.914978
22,1,7/7/2014 16:43,7/7/2014,16:43:00,16,2.01E+11,1400 BLOCK W YORK ST,300,Robbery,16,2014-07,-75.156456,39.989439
25,4,10/3/2014 1:35,10/3/2014,1:35:00,1,2.01E+11,600 BLOCK W MAYFIELD ST,200,Rape,18,2014-10,-75.142104,39.998213
6,3,3/18/2014 15:36,3/18/2014,15:36:00,15,2.01E+11,200 BLOCK S 11TH ST 56,1100,Fraud,5,2014-03,-75.159182,39.947965
24,3,5/8/2014 17:04,5/8/2014,17:04:00,17,2.01E+11,3300 BLOCK COLLINS ST,1800,Narcotic / Drug Law Violations,17,2014-05,-75.105659,39.993879
6,2,11/19/2014 21:18,11/19/2014,21:18:00,21,2.01E+11,700 BLOCK VINE ST,2400,Disorderly Conduct,5,2014-11,-75.15133,39.956546
6,2,6/2/2014 10:44,6/2/2014,10:44:00,10,2.01E+11,0 BLOCK LETITIA ST,600,Thefts,5,2014-06,-75.143124,39.949205
9,3,6/25/2014 17:44,6/25/2014,17:44:00,17,2.01E+11,1900 BLOCK FAIRMOUNT AVE,1100,Fraud,8,2014-06,-75.16938,39.967276
2,2,6/16/2014 23:26,6/16/2014,23:26:00,23,2.01E+11,6100 BLOCK PALMETTO ST,600,Thefts,2,2014-06,-75.097989,40.045388
25,4,1/1/2014 3:12,1/1/2014,3:12:00,3,2.01E+11,2800 BLOCK N WARNOCK ST,500,Burglary,18,2014-01,-75.148152,39.995183
24,2,6/13/2014 15:57,6/13/2014,15:57:00,15,2.01E+11,3000 BLOCK FRANKFORD AVE,1800,Narcotic / Drug Law Violations,17,2014-06,-75.115989,39.990458
8,2,8/28/2014 12:05,8/28/2014,12:05:00,12,2.01E+11,3200 BLOCK RED LION RD,600,Thefts,7,2014-08,-74.994298,40.081586
14,2,7/26/2014 11:07,7/26/2014,11:07:00,11,2.01E+11,5600 BLOCK UTAH ST,1100,Fraud,10,2014-07,-75.169905,40.038519
9,3,5/27/2014 10:46,5/27/2014,10:46:00,10,2.01E+11,1500 BLOCK FAIRMOUNT AVE,600,Thefts,8,2014-05,-75.162375,39.967133
39,1,3/8/2014 13:22,3/8/2014,13:22:00,13,2.01E+11,4900 BLOCK WAYNE AVE,400,Aggravated Assault,21,2014-03,-75.166878,40.02501
19,2,3/31/2014 23:43,3/31/2014,23:43:00,23,2.01E+11,300 BLOCK N 60TH ST,2100,Driving Under The Influence,15,2014-03,-75.23984,39.966638
12,3,3/24/2014 16:46,3/24/2014,16:46:00,16,2.01E+11,3100 BLOCK S 61ST ST,500,Burglary,9,2014-03,-75.218344,39.922297
6,2,6/24/2014 14:36,6/24/2014,14:36:00,14,2.01E+11,1000 BLOCK MARKET ST,600,Thefts,5,2014-06,-75.15676,39.951575
19,3,7/7/2014 17:07,7/7/2014,17:07:00,17,2.01E+11,1500 BLOCK N 52ND ST,600,Thefts,15,2014-07,-75.225649,39.978869
25,1,5/14/2014 12:21,5/14/2014,12:21:00,12,2.01E+11,3600 BLOCK N MARSHALL ST,400,Aggravated Assault,18,2014-05,-75.139851,40.006572
15,1,11/14/2014 14:19,11/14/2014,14:19:00,14,2.01E+11,5200 BLOCK FRANKFORD AVE,2400,Disorderly Conduct,11,2014-11,-75.078182,40.022416
14,2,7/3/2014 20:46,7/3/2014,20:46:00,20,2.01E+11,0 BLOCK COLLOM ST,1800,Narcotic / Drug Law Violations,10,2014-07,-75.16611,40.030663
15,1,4/28/2014 13:56,4/28/2014,13:56:00,13,2.01E+11,2000 BLOCK GRANITE ST,500,Burglary,11,2014-04,-75.071807,40.014804
6,1,4/22/2014 7:13,4/22/2014,7:13:00,7,2.01E+11,1100 BLOCK CALLOWHILL ST,600,Thefts,5,2014-04,-75.156779,39.958873
39,1,10/7/2014 1:43,10/7/2014,1:43:00,1,2.01E+11,100 BLOCK W SEYMOUR ST,1800,Narcotic / Drug Law Violations,18,2014-10,-75.130585,39.992436
2,3,7/27/2014 13:10,7/27/2014,13:10:00,13,2.01E+11,2100 BLOCK FRIENDSHIP ST,500,Burglary,2,2014-07,-75.060937,40.044481
7,3,12/6/2014 0:44,12/6/2014,0:44:00,0,2.01E+11,11500 BLOCK E ROOSEVELT BLVD,2100,Driving Under The Influence,6,2014-12,-75.003747,40.103649
12,4,11/4/2014 20:23,11/4/2014,20:23:00,20,2.01E+11,5500 BLOCK ANGORA TER,1800,Narcotic / Drug Law Violations,9,2014-11,-75.233783,39.94657
15,2,4/16/2014 12:34,4/16/2014,12:34:00,12,2.01E+11,4300 BLOCK HOWELL ST A,500,Burglary,11,2014-04,-75.06409,40.020783
9,1,5/21/2014 16:36,5/21/2014,16:36:00,16,2.01E+11,1500 BLOCK SANSOM ST,600,Thefts,8,2014-05,-75.165816,39.950281
9,1,6/15/2014 13:01,6/15/2014,13:01:00,13,2.01E+11,1600 BLOCK WALNUT ST,600,Thefts,8,2014-06,-75.167937,39.94984
1,1,10/31/2014 11:04,10/31/2014,11:04:00,11,2.01E+11,1500 BLOCK SNYDER AVE,1100,Fraud,1,2014-10,-75.172463,39.924692
8,3,12/3/2014 20:56,12/3/2014,20:56:00,20,2.01E+11,400 BLOCK FRANKLIN MILLS CIR,600,Thefts,7,2014-12,-74.964633,40.086327
24,2,9/2/2014 13:34,9/2/2014,13:34:00,13,2.01E+11,2900 BLOCK BOUDINOT ST,2300,Public Drunkenness,17,2014-09,-75.123247,39.993088
16,1,8/23/2014 23:50,8/23/2014,23:50:00,23,2.01E+11,0 BLOCK N 39TH ST,600,Thefts,12,2014-08,-75.199481,39.957206
18,3,11/15/2014 3:47,11/15/2014,3:47:00,3,2.01E+11,4000 BLOCK MARKET ST,1100,Fraud,14,2014-11,-75.201956,39.957158
2,2,9/8/2014 16:34,9/8/2014,16:34:00,16,2.01E+11,800 BLOCK DISSTON ST,300,Robbery,2,2014-09,-75.083601,40.053254
7,2,8/8/2014 13:40,8/8/2014,13:40:00,13,2.01E+11,9700 BLOCK WALLEY AVE,1100,Fraud,6,2014-08,-75.039288,40.093993
6,1,5/3/2014 11:00,5/3/2014,11:00:00,11,2.01E+11,300 BLOCK N 13TH ST,600,Thefts,5,2014-05,-75.160147,39.958303
6,2,7/28/2014 15:30,7/28/2014,15:30:00,15,2.01E+11,0 BLOCK S 09TH ST,600,Thefts,5,2014-07,-75.155097,39.951288
22,1,3/17/2014 16:05,3/17/2014,16:05:00,16,2.01E+11,1800 BLOCK W DIAMOND ST,400,Aggravated Assault,16,2014-03,-75.162953,39.985552
25,4,9/14/2014 10:35,9/14/2014,10:35:00,10,2.01E+11,700 BLOCK W INDIANA AVE,1800,Narcotic / Drug Law Violations,18,2014-09,-75.142838,39.99709
24,2,4/29/2014 18:55,4/29/2014,18:55:00,18,2.01E+11,400 BLOCK E CAMBRIA ST,1800,Narcotic / Drug Law Violations,17,2014-04,-75.124155,39.993138
35,2,12/22/2014 2:52,12/22/2014,2:52:00,2,2.01E+11,OLD YORK RD / W WINGOHOCKING ST,1500,Weapon Violations,20,2014-12,-75.147114,40.02129
9,1,8/10/2014 11:57,8/10/2014,11:57:00,11,2.01E+11,200 BLOCK S 18TH ST,600,Thefts,8,2014-08,-75.170604,39.950106
24,2,7/23/2014 18:16,7/23/2014,18:16:00,18,2.01E+11,3100 BLOCK ARBOR ST,500,Burglary,17,2014-07,-75.122917,39.996386
3,2,4/9/2014 8:47,4/9/2014,8:47:00,8,2.01E+11,400 BLOCK WOLF ST,400,Aggravated Assault,3,2014-04,-75.154782,39.919871
19,2,6/15/2014 20:15,6/15/2014,20:15:00,20,2.01E+11,1300 BLOCK N 56TH ST,1800,Narcotic / Drug Law Violations,15,2014-06,-75.232897,39.972778
26,3,4/6/2014 14:39,4/6/2014,14:39:00,14,2.01E+11,2400 BLOCK CEDAR ST,600,Thefts,19,2014-04,-75.122439,39.979376
1,2,2/26/2014 8:53,2/26/2014,8:53:00,8,2.01E+11,3000 BLOCK S 15TH ST 2,1400,Vandalism/Criminal Mischief,1,2014-02,-75.173794,39.913195
26,2,11/22/2014 14:02,11/22/2014,14:02:00,14,2.01E+11,1300 BLOCK N 09TH ST,500,Burglary,19,2014-11,-75.150445,39.973078
9,1,6/7/2014 3:49,6/7/2014,3:49:00,3,2.01E+11,1800 BLOCK SPRUCE ST,600,Thefts,8,2014-06,-75.171613,39.947793
22,2,1/29/2014 0:14,1/29/2014,0:14:00,0,2.01E+11,2300 BLOCK W HUNTINGDON ST,600,Thefts,16,2014-01,-75.170253,39.9943
1,1,2/16/2014 12:20,2/16/2014,12:20:00,12,2.01E+11,1900 BLOCK HOFFMAN ST,1100,Fraud,1,2014-02,-75.177741,39.927545
1,1,6/7/2014 3:09,6/7/2014,3:09:00,3,2.01E+11,2800 BLOCK JACKSON ST,1400,Vandalism/Criminal Mischief,1,2014-06,-75.192865,39.926032
14,3,5/18/2014 11:15,5/18/2014,11:15:00,11,2.01E+11,100 BLOCK W QUEEN LN,1400,Vandalism/Criminal Mischief,10,2014-05,-75.170598,40.029979
2,3,4/5/2014 19:28,4/5/2014,19:28:00,19,2.01E+11,7400 BLOCK BUSTLETON AVE A,600,Thefts,2,2014-04,-75.057874,40.05021
9,1,7/15/2014 21:18,7/15/2014,21:18:00,21,2.01E+11,400 BLOCK S 18TH ST,600,Thefts,8,2014-07,-75.17153,39.946348
15,1,11/3/2014 9:08,11/3/2014,9:08:00,9,2.01E+11,1100 BLOCK KENWYN ST,500,Burglary,11,2014-11,-75.084852,40.025415
22,2,10/31/2014 1:46,10/31/2014,1:46:00,1,2.01E+11,2000 BLOCK N 3OTH ST,1400,Vandalism/Criminal Mischief,16,2014-10,-75.182305,39.987387
9,2,11/17/2014 8:52,11/17/2014,8:52:00,8,2.01E+11,1400 BLOCK VINE ST,2400,Disorderly Conduct,8,2014-11,-75.162566,39.957672
25,2,4/8/2014 6:34,4/8/2014,6:34:00,6,2.01E+11,4600 BLOCK ELLA ST,600,Thefts,18,2014-04,-75.121812,40.020012
1,1,1/2/2014 9:18,1/2/2014,9:18:00,9,2.01E+11,2100 BLOCK S BEECHWOOD ST,1400,Vandalism/Criminal Mischief,1,2014-01,-75.182311,39.925636
1,1,2/9/2014 8:19,2/9/2014,8:19:00,8,2.01E+11,2700 BLOCK CANTRELL TER,400,Aggravated Assault,1,2014-02,-75.192187,39.925452
2,2,1/5/2014 0:52,1/5/2014,0:52:00,0,2.01E+11,6500 BLOCK OXFORD AV,600,Thefts,2,2014-01,-75.087389,40.047494
22,2,4/23/2014 13:19,4/23/2014,13:19:00,13,2.01E+11,2900 BLOCK RIDGE AVE,1500,Weapon Violations,16,2014-04,-75.18167,39.987422
15,1,7/10/2014 20:00,7/10/2014,20:00:00,20,2.01E+11,2800 BLOCK SELLERS ST,1100,Fraud,11,2014-07,-75.074108,39.995967
18,1,1/21/2014 10:07,1/21/2014,10:07:00,10,2.01E+11,5700 BLOCK HAZEL AVE,600,Thefts,14,2014-01,-75.237218,39.952839
3,3,7/7/2014 4:13,7/7/2014,4:13:00,4,2.01E+11,2800 BLOCK S ISEMINGER ST,600,Thefts,3,2014-07,-75.168883,39.914999
24,2,2/14/2014 19:59,2/14/2014,19:59:00,19,2.01E+11,200 BLOCK E INDIANA AVE,1800,Narcotic / Drug Law Violations,17,2014-02,-75.127989,39.995175
12,2,4/8/2014 12:23,4/8/2014,12:23:00,12,2.01E+11,6800 BLOCK UPLAND ST,1800,Narcotic / Drug Law Violations,9,2014-04,-75.241205,39.923839
26,3,8/9/2014 16:57,8/9/2014,16:57:00,16,2.01E+11,400 BLOCK E GIRARD AV,600,Thefts,19,2014-08,-75.130386,39.97016
3,3,12/18/2014 13:45,12/18/2014,13:45:00,13,2.01E+11,2500 BLOCK S 11TH ST,1100,Fraud,3,2014-12,-75.165635,39.918534
22,1,9/5/2014 17:53,9/5/2014,17:53:00,17,2.01E+11,1500 BLOCK W YORK ST,400,Aggravated Assault,16,2014-09,-75.157251,39.989543
15,1,10/21/2014 13:20,10/21/2014,13:20:00,13,2.01E+11,4500 BLOCK FRANKFORD AVE,1800,Narcotic / Drug Law Violations,11,2014-10,-75.086291,40.01387
22,1,5/1/2014 16:28,5/1/2014,16:28:00,16,2.01E+11,1800 BLOCK N 21ST ST,1100,Fraud,16,2014-05,-75.168748,39.98236
15,3,6/19/2014 8:01,6/19/2014,8:01:00,8,2.01E+11,2900 BLOCK COTTMAN AV,600,Thefts,11,2014-06,-75.051355,40.042806
2,2,1/6/2014 9:00,1/6/2014,9:00:00,9,2.01E+11,6000 BLOCK BINGHAM ST,600,Thefts,2,2014-01,-75.098369,40.043554
14,3,12/28/2014 18:11,12/28/2014,18:11:00,18,2.01E+11,6700 BLOCK LINCOLN DR,600,Thefts,10,2014-12,-75.19207,40.047648
7,3,1/21/2014 15:54,1/21/2014,15:54:00,15,2.01E+11,10100 BLOCK BUSTLETON AVE,600,Thefts,6,2014-01,-75.026946,40.106762
19,2,2/6/2014 19:42,2/6/2014,19:42:00,19,2.01E+11,5100 BLOCK W STILES ST,2100,Driving Under The Influence,15,2014-02,-75.223858,39.972499
9,1,5/14/2014 19:17,5/14/2014,19:17:00,19,2.01E+11,1600 BLOCK CHESTNUT ST,300,Robbery,8,2014-05,-75.167238,39.951227
19,2,12/7/2014 17:22,12/7/2014,17:22:00,17,2.01E+11,5200 BLOCK MARKET ST,600,Thefts,15,2014-12,-75.224902,39.960061
3,2,11/21/2014 22:34,11/21/2014,22:34:00,22,2.01E+11,2200 BLOCK S CHRISTOPHER COLUMBUS BLVD,600,Thefts,3,2014-11,-75.140564,39.919418
15,3,4/30/2014 8:46,4/30/2014,8:46:00,8,2.01E+11,7100 BLOCK COTTAGE ST,400,Aggravated Assault,11,2014-04,-75.041327,40.031501
2,1,1/14/2014 13:58,1/14/2014,13:58:00,13,2.01E+11,5700 BLOCK LANGDON ST,2400,Disorderly Conduct,2,2014-01,-75.092303,40.03437
16,1,3/4/2014 10:27,3/4/2014,10:27:00,10,2.01E+11,4000 BLOCK PARKSIDE AVE,1800,Narcotic / Drug Law Violations,12,2014-03,-75.204807,39.974636
9,2,12/20/2014 21:57,12/20/2014,21:57:00,21,2.01E+11,1400 BLOCK JOHN F KENNEDY BLVD,2400,Disorderly Conduct,8,2014-12,-75.164495,39.953499
5,1,2/22/2014 1:43,2/22/2014,1:43:00,1,2.01E+11,MAIN ST / SHURS LA,2400,Disorderly Conduct,4,2014-02,-75.218308,40.022206
24,3,9/14/2014 6:51,9/14/2014,6:51:00,6,2.01E+11,3000 BLOCK TULIP ST,400,Aggravated Assault,17,2014-09,-75.110108,39.988135
26,3,2/13/2014 1:25,2/13/2014,1:25:00,1,2.01E+11,2000 BLOCK E HAGERT ST,400,Aggravated Assault,19,2014-02,-75.127893,39.983723
2,3,6/19/2014 13:27,6/19/2014,13:27:00,13,2.01E+11,1600 BLOCK COTTMAN AV,600,Thefts,2,2014-06,-75.073155,40.055331
25,3,9/25/2014 12:56,9/25/2014,12:56:00,12,2.01E+11,100 BLOCK W CAMBRIA ST,1800,Narcotic / Drug Law Violations,17,2014-09,-75.130263,39.993926
2,3,5/26/2014 23:24,5/26/2014,23:24:00,23,2.01E+11,7000 BLOCK RUTLAND ST,500,Burglary,2,2014-05,-75.069413,40.046628
15,2,1/18/2014 15:33,1/18/2014,15:33:00,15,2.01E+11,6300 BLOCK CARDIFF ST,600,Thefts,11,2014-01,-75.065171,40.031363
15,3,12/23/2014 18:46,12/23/2014,18:46:00,18,2.01E+11,4100 BLOCK LONGSHORE AV,1400,Vandalism/Criminal Mischief,11,2014-12,-75.048513,40.032813
7,2,5/15/2014 21:00,5/15/2014,21:00:00,21,2.01E+11,9900 BLOCK E ROOSEVELT BLVD,600,Thefts,6,2014-05,-75.016759,40.093649
8,2,2/21/2014 23:06,2/21/2014,23:06:00,23,2.01E+11,2500 BLOCK GRANT AV,600,Thefts,7,2014-02,-75.024405,40.078344
3,2,8/9/2014 20:05,8/9/2014,20:05:00,20,2.01E+11,0 BLOCK MIFFLIN ST,600,Thefts,3,2014-08,-75.143215,39.923442
3,3,8/1/2014 22:39,8/1/2014,22:39:00,22,2.01E+11,0 BLOCK CITIZENS BANK WAY,2400,Disorderly Conduct,3,2014-08,-75.166569,39.907108
9,1,4/10/2014 19:43,4/10/2014,19:43:00,19,2.01E+11,2600 BLOCK PINE ST,600,Thefts,8,2014-04,-75.182619,39.94774
3,2,12/23/2014 16:25,12/23/2014,16:25:00,16,2.01E+11,1600 BLOCK S CHRISTOPHER COLUMBUS BLVD,600,Thefts,3,2014-12,-75.145018,39.926765
22,3,10/23/2014 5:17,10/23/2014,5:17:00,5,2.01E+11,1700 BLOCK N BROAD ST,1100,Fraud,16,2014-10,-75.157961,39.978769
15,3,8/25/2014 17:11,8/25/2014,17:11:00,17,2.01E+11,4500 BLOCK LORING ST,1100,Fraud,11,2014-08,-75.033239,40.033379
18,3,11/28/2014 15:12,11/28/2014,15:12:00,15,2.01E+11,N 40TH ST / MARKET ST,1100,Fraud,14,2014-11,-75.201956,39.957158
2,1,6/11/2014 20:21,6/11/2014,20:21:00,20,2.01E+11,1500 BLOCK MC KINLEY ST,600,Thefts,2,2014-06,-75.077201,40.03618
